,station,total,id,name,country,region,wmo,icao,latitude,longitude,elevation,timezone,hourly_start,hourly_end,daily_start,daily_end,monthly_start,monthly_end,milesfromstat
206,KARB0,12672,KARB0,Ann Arbor / Pittsfield,US,MI,,KARB,42.223,-83.7456,256.0,America/Detroit,2006-01-01,2022-09-22,2006-01-01,2022-04-24,2006-01-01,2022-01-01,0.0
208,KARV0,7484,KARV0,Minocqua / Woodruff,US,WI,,KARV,45.9279,-89.7309,497.0,America/Chicago,2006-01-01,2022-09-22,2006-01-01,2022-04-24,2009-01-01,2022-01-01,392.4650806467471
472,KPNT0,7310,KPNT0,Pontiac / Cayuga,US,IL,,KPNT,40.9244,-88.6239,203.0,America/Chicago,2006-09-26,2022-09-22,2011-03-18,2022-04-24,2015-01-01,2022-01-01,268.175427890862
471,KPNM0,7166,KPNM0,Princeton / Princetown [Misspelling],US,MN,,KPNM,45.5599,-93.6082,299.0,America/Chicago,2006-01-01,2022-09-22,2006-01-01,2022-04-24,2006-01-01,2022-01-01,543.1495742413008
470,KPMV0,6991,KPMV0,Plattsmouth / Mynard,US,NE,,KPMV,40.9484,-95.9174,367.0,America/Chicago,2006-11-21,2022-09-22,2006-11-22,2022-04-24,2009-01-01,2022-01-01,636.2083673390464
207,KARR0,6625,KARR0,Aurora / Sugar Grove,US,IL,,KARR,41.7719,-88.4757,217.0,America/Chicago,2006-01-01,2022-09-22,2006-01-01,2022-04-24,2006-01-01,2022-01-01,245.4696517264121
205,KAQP0,6345,KAQP0,Appleton,US,MN,,KAQP,45.2275,-96.0043,311.0,America/Chicago,2006-01-01,2022-09-22,2006-01-01,2022-04-24,2007-01-01,2022-01-01,647.0815922563789
469,KPLN0,6289,KPLN0,Pellston,US,MI,,KPLN,45.5709,-84.7967,220.0,America/Detroit,1973-01-01,2022-09-22,1973-01-01,2022-04-24,2000-01-01,2021-01-01,237.0168175811297
202,KANQ0,6010,KANQ0,Angola / Flint,US,IN,,KANQ,41.6397,-85.0835,303.0,America/Indiana/Indianapolis,2020-01-14,2022-09-22,2020-01-14,2022-04-24,2020-01-01,2022-01-01,79.84114013411553
219,KAZO0,5909,KAZO0,Kalamazoo / Colonial Acres Mobile Home Park,US,MI,,KAZO,42.2344,-85.5516,266.0,America/Detroit,2006-01-01,2022-09-22,2006-01-01,2022-04-24,2006-01-01,2022-01-01,92.6427742562016
209,KASW0,5855,KASW0,Warsaw / Monoquet,US,IN,,KASW,41.2747,-85.8401,259.0,America/Indiana/Indianapolis,2006-10-28,2022-09-22,2009-09-05,2022-04-24,2013-01-01,2022-01-01,126.49053252893196
213,KAUH0,5807,KAUH0,Aurora,US,NE,,KAUH,40.8941,-97.9946,550.0,America/Chicago,2006-01-01,2022-09-22,2006-01-01,2022-04-24,2007-01-01,2022-01-01,743.3848111976686
478,KPWC0,5720,KPWC0,Pine River,US,MN,,KPWC,46.7248,-94.3817,395.0,America/Chicago,2006-01-01,2022-09-22,2006-01-01,2022-04-24,2006-01-01,2022-01-01,610.0708967624741
215,KAWG0,5703,KAWG0,Washington,US,IA,,KAWG,41.275,-91.6752,230.0,America/Chicago,2006-01-01,2022-09-22,2006-01-01,2022-04-24,2014-01-01,2022-01-01,414.8552043980395
483,KRCX0,5700,KRCX0,Ladysmith / Tony,US,WI,,KRCX,45.4968,-91.0005,378.0,America/Chicago,2009-06-17,2022-09-22,2009-06-17,2022-04-24,2009-01-01,2022-01-01,426.8658462808973
200,KAMN0,5695,KAMN0,Alma / Eugene,US,MI,,KAMN,43.3221,-84.6879,230.0,America/Detroit,2006-01-01,2022-09-22,2006-01-01,2022-04-24,2006-01-01,2022-01-01,89.73237166685479
216,KAXA0,5685,KAXA0,Algona / Hobarton,US,IA,,KAXA,43.0779,-94.272,371.0,America/Chicago,2006-01-01,2022-09-22,2006-01-01,2022-04-24,2011-01-01,2022-01-01,539.2306932927802
464,KPHD0,5672,KPHD0,New Philadelphia / Schoenbrunn Estates,US,OH,,KPHD,40.4702,-81.4199,273.0,America/New_York,2006-01-01,2022-09-22,2006-01-01,2022-04-24,2006-01-01,2022-01-01,171.0404471434868
196,KAIG0,5631,KAIG0,Antigo,US,WI,,KAIG,45.1542,-89.1107,464.0,America/Chicago,2006-01-01,2022-09-22,2006-01-01,2022-04-24,2006-01-01,2022-01-01,336.31777542562384
214,KAUM0,5623,KAUM0,Austin,US,MN,,KAUM,43.6626,-92.9329,376.0,America/Chicago,2006-01-01,2022-09-22,2006-01-01,2022-04-24,2007-01-01,2022-01-01,476.1359307612848
486,KRHI0,5617,KRHI0,Rhinelander,US,WI,,KRHI,45.6309,-89.4666,495.0,America/Chicago,2006-01-01,2022-09-22,2006-01-01,2022-04-24,2006-01-01,2022-01-01,369.7695492707318
477,KPVB0,5617,KPVB0,Platteville / Ipswich,US,WI,,KPVB,42.6894,-90.4444,312.0,America/Chicago,2008-08-25,2022-09-22,2008-08-27,2022-04-24,2015-01-01,2022-01-01,343.80551761190543
466,KPJC0,5603,KPJC0,Zelienople / Old Furnace,US,PA,,KPJC,40.802,-80.1609,274.0,America/New_York,2020-01-14,2022-09-22,2020-01-14,2022-04-12,2020-01-01,2021-01-01,210.19501361119515
461,KPDC0,5601,KPDC0,Prairie Du Chien / Selchs Mobile Home Park,US,WI,,KPDC,43.0193,-91.1237,201.0,America/Chicago,2006-01-01,2022-09-22,2006-01-01,2022-04-24,2007-01-01,2022-01-01,379.9825982676877
463,KPEX0,5598,KPEX0,Paynesville,US,MN,,KPEX,45.3721,-94.7447,361.0,America/Chicago,2005-08-12,2022-09-22,2005-08-13,2022-04-24,2011-01-01,2022-01-01,590.8219512703417
488,KRNH0,5590,KRNH0,New Richmond / Woodbridge Trailer Court,US,WI,,KRNH,45.1478,-92.5392,304.0,America/Chicago,2006-01-01,2022-09-22,2006-01-02,2022-04-24,2007-01-01,2022-01-01,484.2817227246464
476,KPTK0,5585,KPTK0,Pontiac / Waterford,US,MI,,KPTK,42.6656,-83.4205,299.0,America/Detroit,2006-01-01,2022-09-22,2006-01-01,2022-04-24,2006-01-01,2022-01-01,34.777644646083594
475,KPQN0,5585,KPQN0,Pipestone,US,MN,,KPQN,43.9833,-96.3003,529.0,America/Chicago,2006-01-01,2022-08-02,2006-01-01,2022-04-24,2012-01-01,2022-01-01,645.894728563919
473,KPOV0,5567,KPOV0,Ravenna / Birchwood Manor,US,OH,,KPOV,41.2102,-81.2516,365.0,America/New_York,2009-03-18,2022-09-22,2009-03-19,2022-04-25,2009-01-01,2022-01-01,146.6773196844396
221,KBAX0,5555,KBAX0,Bad Axe,US,MI,,KBAX,43.7802,-82.9854,233.0,America/Detroit,2006-01-01,2022-09-22,2006-01-01,2022-04-24,2008-01-01,2022-01-01,114.18390299253468
224,KBCK0,5553,KBCK0,Black River Falls / Charter Oak Mills (Historical),US,WI,,KBCK,44.2507,-90.8553,255.0,America/Chicago,2010-11-18,2022-09-22,2010-11-19,2022-04-24,2011-01-01,2022-01-01,385.0123541153232
465,KPHN0,5552,KPHN0,Port Huron / Marysville,US,MI,,KPHN,42.911,-82.5289,198.0,America/Detroit,2006-01-01,2022-09-22,2006-01-01,2022-04-25,2007-01-01,2022-01-01,78.1577427351448
484,KRDK0,5551,KRDK0,Red Oak / Villa Village Mobile Home Park,US,IA,,KRDK,41.0108,-95.2589,319.0,America/Chicago,2006-01-01,2022-09-22,2006-01-01,2022-04-24,2011-01-01,2022-01-01,601.6228126050153
220,KBAC0,5531,KBAC0,Valley City / North Valley City,US,ND,,KBAC,46.9412,-98.018,427.0,America/Chicago,2010-12-15,2022-09-22,2010-12-16,2022-04-24,2014-01-01,2022-01-01,774.4870282054259
489,KRNP0,5529,KRNP0,Owosso / Middletown,US,MI,,KRNP,42.993,-84.1385,224.0,America/Detroit,2005-01-01,2022-09-22,2005-01-01,2022-04-25,2006-01-01,2022-01-01,56.79927576592002
198,KAIT0,5528,KAIT0,Aitkin / Welshons Company Mobile Home Park,US,MN,,KAIT,46.5484,-93.6768,368.0,America/Chicago,2006-01-01,2022-09-22,2006-01-01,2022-04-24,2009-01-01,2022-01-01,574.6758016180204
462,KPEA0,5519,KPEA0,Pella,US,IA,,KPEA,41.4012,-92.9459,270.0,America/Chicago,2006-01-01,2022-09-22,2006-01-01,2022-04-24,2011-01-01,2022-01-01,478.16678906697217
467,KPKD0,5512,KPKD0,Park Rapids,US,MN,,KPKD,46.9007,-95.0731,440.0,America/Chicago,1990-01-11,2022-09-22,1995-07-05,2022-04-24,1998-01-01,2022-01-01,644.845503646951
193,KAFJ0,5488,KAFJ0,Washington / Lagonda,US,PA,,KAFJ,40.1365,-80.2902,361.0,America/New_York,2006-01-01,2022-09-22,2006-01-01,2022-04-24,2006-01-01,2022-01-01,230.5882747829089
211,KATW0,5482,KATW0,Appleton / Greenville,US,WI,,KATW,44.2581,-88.5191,280.0,America/Chicago,2006-01-01,2022-09-22,2020-01-14,2022-04-24,2020-01-01,2022-01-01,278.8164876192577
218,KAXV0,5482,KAXV0,Wapakoneta / New Knoxville,US,OH,,KAXV,40.4936,-84.2981,278.0,America/New_York,2020-01-14,2022-09-22,2020-01-14,2022-04-24,2020-01-01,2022-01-01,122.75378715833484
460,KPCZ0,5477,KPCZ0,Waupaca,US,WI,,KPCZ,44.3332,-89.0198,256.0,America/Chicago,2006-01-01,2022-09-22,2006-01-04,2022-04-24,2008-01-01,2022-01-01,303.20790895072105
201,KAMW0,5472,KAMW0,Ames / Old Orchard Mobile Home Park,US,IA,,KAMW,41.9921,-93.6218,291.0,America/Chicago,2006-01-01,2022-09-22,2006-01-01,2022-04-24,2006-01-01,2022-01-01,507.5464865837735
468,KPLD0,5463,KPLD0,Portland,US,IN,,KPLD,40.4516,-84.989,282.0,America/Indiana/Indianapolis,2020-01-14,2022-07-06,2020-01-14,2022-04-18,2020-01-01,2022-01-01,138.2923765450338
481,KRAC0,5463,KRAC0,Racine / Ives,US,WI,,KRAC,42.7612,-87.8139,205.0,America/Chicago,2006-01-01,2022-09-22,2006-01-01,2022-04-24,2006-01-01,2022-01-01,211.09090452815312
197,KAIO0,5462,KAIO0,Atlantic,US,IA,,KAIO,41.4038,-95.0487,355.0,America/Chicago,2006-01-01,2022-09-22,2006-01-01,2022-04-24,2015-01-01,2022-01-01,585.8885535016162
490,KROS0,5451,KROS0,Rush City / Stenger's Mobile Home Park,US,MN,,KROS,45.6971,-92.9522,282.0,America/Chicago,2006-01-01,2022-09-22,2006-01-01,2022-04-24,2006-01-01,2022-01-01,517.5723889783686
217,KAXN0,5448,KAXN0,Alexandria / Mobile Park Estates,US,MN,,KAXN,45.8663,-95.3947,434.0,America/Chicago,1973-01-01,2022-09-22,1973-01-01,2022-04-24,1999-01-01,2022-01-01,631.5307809340158
232,KBKL0,5444,KBKL0,Brookville / Old Chinatown,US,PA,,KBKL,41.5175,-81.6833,178.0,America/New_York,2006-01-01,2022-09-22,2006-01-01,2022-04-24,2006-01-01,2022-01-01,116.99360667655972
212,KATY0,5441,KATY0,Watertown,US,SD,,KATY,44.914,-97.1547,533.0,America/Chicago,1948-01-01,2022-09-22,1948-01-24,2022-04-24,1948-01-01,2022-01-01,697.3441811506647
480,KPZQ0,5426,KPZQ0,Presque Isle / Rogers City,US,MI,,KPZQ,45.4071,-83.8129,204.0,America/Detroit,2006-01-01,2022-09-22,2006-01-01,2022-04-25,2006-01-01,2022-01-01,219.8550663610497
479,KPWK0,5405,KPWK0,Chicago / Wood Oaks Glen,US,IL,,KPWK,42.1143,-87.9015,197.0,America/Chicago,2006-01-01,2022-09-22,2006-01-01,2022-04-24,2006-01-01,2021-01-01,213.4950029314821
458,KPBH0,5400,KPBH0,Phillips,US,WI,,KPBH,45.7089,-90.4025,456.0,America/Chicago,2006-01-01,2022-09-22,2006-01-01,2022-04-24,2007-01-01,2022-01-01,409.7905098113207
225,KBDE0,5383,KBDE0,Baudette,US,MN,,KBDE,48.7284,-94.6122,331.0,America/Chicago,1983-11-04,2022-09-22,1995-02-11,2022-04-24,1998-01-01,2022-01-01,692.045921904989
194,KAFK0,5381,KAFK0,Nebraska City / Paul,US,NE,,KAFK,40.6054,-95.8678,355.0,America/Chicago,2006-01-01,2022-09-22,2006-01-01,2022-04-24,2007-01-01,2022-01-01,638.9962188600691
487,KRMY0,5381,KRMY0,Marshall,US,MI,,KRMY,42.2512,-84.9554,287.0,America/Detroit,2006-01-01,2022-09-22,2006-01-01,2022-04-25,2008-01-01,2022-01-01,62.080064228429855
485,KRGK0,5379,KRGK0,Red Wing / Oak Hill Mobile Home Park,US,MN,,KRGK,44.5894,-92.485,237.0,America/Chicago,2006-01-01,2022-09-22,2006-01-01,2022-04-24,2006-01-01,2022-01-01,468.9319521832161
482,KRCR0,5359,KRCR0,Rochester / Big Hill,US,IN,,KRCR,41.0655,-86.1817,241.0,America/Indiana/Indianapolis,2010-06-30,2022-09-22,2011-02-09,2022-04-25,2012-01-01,2022-01-01,149.27135884330954
491,KRPD0,5313,KRPD0,Rice Lake / Cameron,US,WI,,KRPD,45.4201,-91.7733,338.0,America/Chicago,2006-01-01,2022-09-22,2006-01-01,2022-04-24,2011-01-01,2022-01-01,457.670634479828
494,KRRL0,5294,KRRL0,Merrill,US,WI,,KRRL,45.1989,-89.7129,402.0,America/Chicago,2006-01-01,2022-09-22,2006-01-02,2022-04-24,2008-01-01,2022-01-01,362.491650813878
493,KRQB0,5290,KRQB0,Big Rapids / Havenview Mobile Home Court,US,MI,,KRQB,43.7226,-85.5041,302.0,America/Detroit,2006-01-01,2022-09-22,2006-01-01,2022-04-25,2007-01-01,2022-01-01,136.59895664733523
497,KRYV0,5277,KRYV0,Watertown,US,WI,,KRYV,43.1696,-88.7232,254.0,America/Chicago,2006-01-01,2022-09-22,2006-01-01,2022-04-24,2006-01-01,2022-01-01,261.6814982535224
454,KOXI0,5268,KOXI0,Knox / Indian Hill,US,IN,,KOXI,41.3302,-86.6648,209.0,America/Indiana/Knox,2008-10-23,2022-09-22,2009-06-09,2022-04-24,2011-01-01,2022-01-01,162.89853132086128
498,KRZL0,5255,KRZL0,Rensselaer,US,IN,,KRZL,40.9479,-87.1826,213.0,America/Chicago,2011-05-16,2022-09-22,2011-05-17,2022-04-24,2020-01-01,2022-01-01,198.61789529821385
223,KBBW0,5246,KBBW0,Broken Bow,US,NE,,KBBW,41.4365,-99.6422,776.0,America/Chicago,2006-01-01,2022-09-22,2006-01-02,2022-04-24,2006-01-01,2022-01-01,821.1507995647422
199,KAKR0,5243,KAKR0,Akron / Derby Downs,US,OH,,KAKR,41.0375,-81.4669,325.0,America/New_York,1999-08-31,2022-09-22,1999-09-02,2022-04-24,2005-01-01,2022-01-01,143.5690883905256
191,KADU0,5231,KADU0,Audubon / Nishna,US,IA,,KADU,41.7014,-94.9205,392.0,America/Chicago,2006-01-01,2022-09-22,2006-01-01,2022-04-24,2011-01-01,2022-01-01,576.3461076671047
190,KADG0,5223,KADG0,Adrian / Maple Woods Manufactured Home Community,US,MI,,KADG,41.8677,-84.0773,243.0,America/Detroit,2006-01-01,2022-09-22,2006-01-01,2022-04-24,2006-01-01,2022-01-01,29.87506560478955
452,KOWA0,5220,KOWA0,Owatonna / Clinton Falls,US,MN,,KOWA,44.123,-93.2588,349.0,America/Chicago,2006-01-01,2022-09-22,2006-01-01,2022-04-24,2006-01-01,2022-01-01,497.89989642098186
453,KOWX0,5209,KOWX0,Ottawa / Upper Tauwa (Historical),US,OH,,KOWX,41.0356,-83.982,233.0,America/New_York,2016-09-09,2022-09-22,2016-09-10,2022-04-25,2017-01-01,2021-01-01,82.85540188170684
459,KPCW0,5200,KPCW0,Port Clinton / Gypsum,US,OH,,KPCW,41.5163,-82.8695,180.0,America/New_York,2014-07-31,2022-09-22,2014-08-01,2022-04-25,2020-01-01,2022-01-01,66.4929552626028
457,KP580,5180,KP580,Port Hope / Huron City,US,MI,,KP58,44.0219,-82.7931,180.0,America/Detroit,2006-01-01,2022-09-22,2006-01-01,2022-04-24,2006-01-01,2021-01-01,133.19116580861095
188,KACQ0,5157,KACQ0,Waseca / Vista-Villa Mobilehome Community,US,MN,,KACQ,44.0735,-93.5529,344.0,America/Chicago,2006-01-01,2022-09-22,2006-01-01,2022-04-19,2006-01-01,2022-01-01,511.5565936988675
210,KASX0,5141,KASX0,Ashland / Ashland Junction,US,WI,,KASX,46.5485,-90.919,252.0,America/Chicago,2006-01-01,2022-09-22,2006-01-01,2022-04-24,2006-01-01,2022-01-01,463.723704707905
195,KAHQ0,5139,KAHQ0,Wahoo,US,NE,,KAHQ,41.2406,-96.5946,373.0,America/Chicago,2011-05-17,2022-09-22,2011-05-18,2022-04-24,2014-01-01,2022-01-01,667.0593106062588
226,KBDH0,5123,KBDH0,Willmar / Parkwood Estates,US,MN,,KBDH,45.117,-95.1293,343.0,America/Chicago,2007-07-24,2022-09-22,2007-07-25,2022-04-24,2009-01-01,2022-01-01,603.8119273973081
495,KRRT0,5102,KRRT0,Warroad / Longworth,US,MN,,KRRT,48.9415,-95.3485,328.0,America/Chicago,2006-01-01,2022-09-22,2006-01-01,2022-04-24,2006-01-01,2022-01-01,727.8983464138103
474,KPPO0,5086,KPPO0,La Porte / South Laporte,US,IN,,KPPO,41.5725,-86.7345,248.0,America/Chicago,2012-04-02,2022-09-22,2012-04-03,2022-04-24,2015-01-01,2022-01-01,160.51363577902003
192,KAEL0,5074,KAEL0,Albert Lea / Bancroft,US,MN,,KAEL,43.6815,-93.3672,384.0,America/Chicago,2006-01-01,2022-09-22,2006-01-02,2022-04-24,2006-01-01,2022-01-01,497.84925323214895
492,KRPJ0,5067,KRPJ0,Rochelle / Southgate,US,IL,,KRPJ,41.893,-89.0783,238.0,America/Chicago,2006-05-16,2022-09-22,2011-03-16,2022-04-24,2015-01-01,2022-01-01,275.1821196339896
499,KRZN0,5029,KRZN0,Siren,US,WI,,KRZN,45.8227,-92.3725,302.0,America/Chicago,2006-01-02,2022-09-22,2006-12-14,2022-04-24,2007-01-01,2022-01-01,496.0638095791082
203,KANW0,5023,KANW0,Ainsworth / Sandridge,US,NE,,KANW,42.5792,-99.993,789.0,America/Chicago,2006-01-01,2022-09-22,2006-01-01,2022-04-24,2007-01-01,2022-01-01,830.2484826212379
204,KAOH0,5012,KAOH0,Lima / Eastwood Estates,US,OH,,KAOH,40.7075,-84.0271,297.0,America/New_York,2006-01-01,2022-09-22,2006-01-01,2022-04-24,2006-01-01,2022-01-01,105.6023135198338
227,KBEH0,4992,KBEH0,Benton Harbor Airport / Benton Heights,US,MI,,KBEH,42.1286,-86.4285,198.0,America/Detroit,2006-01-01,2022-09-22,2006-01-01,2022-04-24,2006-01-01,2022-01-01,137.88605736828004
235,KBNW0,4991,KBNW0,Boone,US,IA,,KBNW,42.0496,-93.8476,354.0,America/Chicago,2006-01-01,2022-09-22,2006-01-01,2022-04-24,2011-01-01,2022-01-01,518.7849004382413
222,KBBB0,4944,KBBB0,Benson,US,MN,,KBBB,45.3319,-95.6506,317.0,America/Chicago,2006-01-01,2022-09-22,2006-01-01,2022-04-24,2006-01-01,2022-01-01,632.288449124364
496,KRYM0,4937,KRYM0,Ray S Miller Aaf / Camp Ripley Junction,US,MN,,KRYM,46.0912,-94.3605,351.0,America/Chicago,2012-07-13,2022-09-22,2014-02-02,2022-04-24,,,590.6992626944947
435,KOEB0,4936,KOEB0,Coldwater / Countryside Mobile Court,US,MI,,KOEB,41.9336,-85.0523,292.0,America/Detroit,2006-01-01,2022-09-22,2006-01-01,2022-04-25,2008-01-01,2022-01-01,70.0930757576492
234,KBMI0,4912,KBMI0,Bloomington/Normal Airport / Colonial Meadows,US,IL,,KBMI,40.4771,-88.9159,266.0,America/Chicago,2006-01-01,2022-09-22,2006-01-01,2022-04-24,2006-01-01,2022-01-01,294.55775786982827
189,KADC0,4855,KADC0,Wadena / West Wind Estates,US,MN,,KADC,46.4503,-95.211,417.0,America/Chicago,2006-01-01,2022-09-22,2006-01-01,2022-04-24,2006-01-01,2022-01-01,637.899680601603
450,KOVL0,4847,KOVL0,Olivia,US,MN,,KOVL,44.7786,-95.0328,328.0,America/Chicago,2006-01-01,2022-09-22,2006-01-01,2022-04-24,2006-01-01,2022-01-01,593.4466213574061
447,KOSU0,4800,KOSU0,Columbus / Linworth,US,OH,,KOSU,40.0798,-83.073,276.0,America/New_York,2006-01-01,2022-09-22,2006-01-01,2022-04-24,2006-01-01,2022-01-01,151.99933967436445
243,KC290,4796,KC290,Middleton,US,WI,,KC29,43.1143,-89.5315,283.0,America/Chicago,2020-01-14,2022-09-22,2020-01-14,2022-04-24,2020-01-01,2022-01-01,301.01188389423
230,KBIV0,4790,KBIV0,Holland / Lincoln Estates Mobile Home Park,US,MI,,KBIV,42.7428,-86.1078,213.0,America/Detroit,2006-01-01,2022-09-22,2006-01-01,2022-04-24,2006-01-01,2022-01-01,125.89995374860082
507,KSLB0,4783,KSLB0,Storm Lake / Casino Beach,US,IA,,KSLB,42.5973,-95.2407,454.0,America/Chicago,2006-01-01,2022-09-22,2006-01-01,2022-04-24,2014-01-01,2022-01-01,588.0793985065967
504,KSGS0,4765,KSGS0,Saint Paul / Inver Grove Heights,US,MN,,KSGS,44.8571,-93.0329,250.0,America/Chicago,2006-01-01,2022-09-22,2006-01-01,2022-04-24,2006-01-01,2022-01-01,500.2473726320299
451,KOVS0,4763,KOVS0,Boscobel,US,WI,,KOVS,43.1608,-90.674,205.0,America/Chicago,2006-01-01,2022-09-22,2006-01-01,2022-04-24,2006-01-01,2022-01-01,358.57012844226426
241,KBVN0,4760,KBVN0,Albion / Loretto,US,NE,,KBVN,41.7286,-98.0558,551.0,America/Chicago,2006-01-01,2022-09-22,2006-01-04,2022-04-24,2008-01-01,2022-01-01,736.9066169552491
229,KBIE0,4739,KBIE0,Beatrice / Hoyle North 77 Mobile Homes,US,NE,,KBIE,40.3013,-96.7541,403.0,America/Chicago,2006-01-01,2022-09-22,2006-01-02,2022-04-24,2008-01-01,2022-01-01,689.5054408474502
236,KBRD0,4732,KBRD0,Brainerd / Lazy Acre's Trailer Court,US,MN,,KBRD,46.4017,-94.1356,376.0,America/Chicago,2006-01-01,2022-09-22,2006-01-01,2022-04-24,2006-01-01,2022-01-01,589.7059514219417
500,KS320,4728,KS320,Cooperstown,US,ND,,KS32,47.4228,-98.1059,434.0,America/Chicago,2015-09-26,2022-09-22,2015-09-27,2022-04-24,2020-01-01,2022-01-01,790.131212169427
231,KBJJ0,4722,KBJJ0,Wooster / Smithville,US,OH,,KBJJ,40.8748,-81.8882,346.0,America/New_York,2006-01-01,2022-09-22,2006-01-01,2022-04-24,2006-01-01,2022-01-01,133.8935882463676
242,KBWP0,4692,KBWP0,Wahpeton / Boise De Sioux Mobile Estates,US,ND,,KBWP,46.2443,-96.6072,295.0,America/Chicago,2006-01-01,2022-09-22,2006-01-06,2022-04-24,2006-01-01,2022-01-01,695.1681651076915
502,KSDA0,4690,KSDA0,Shenandoah,US,IA,,KSDA,40.7516,-95.4137,296.0,America/Chicago,2006-01-01,2022-09-22,2006-01-01,2022-04-24,2015-01-01,2022-01-01,613.4308542172228
238,KBTL0,4678,KBTL0,Battle Creek / Avenue A Mobile Home Estates,US,MI,,KBTL,42.3073,-85.2515,290.0,America/Detroit,1942-10-01,2022-09-22,1942-11-02,2022-04-24,1942-01-01,2022-01-01,77.42060264704128
441,KONL0,4646,KONL0,O'neill / Douthit Trailer Court,US,NE,,KONL,42.4695,-98.6873,620.0,America/Chicago,2006-01-01,2022-09-22,2006-01-03,2022-04-24,2007-01-01,2022-01-01,764.2310853557013
237,KBTA0,4629,KBTA0,Blair / Bennington,US,NE,,KBTA,41.4148,-96.109,402.0,America/Chicago,2008-01-07,2022-09-22,2008-01-08,2022-04-24,2009-01-01,2022-01-01,640.1474815316034
449,KOTM0,4620,KOTM0,Ottumwa / Keb (Historical),US,IA,,KOTM,41.1066,-92.4479,258.0,America/Chicago,1973-01-01,2022-09-22,1973-01-01,2022-04-24,1975-01-01,2021-01-01,456.6778992745756
183,K7B4X,4611,K7B4X,Markdale,CA,ON,,,44.27,-80.71,411.0,America/Toronto,,,2004-09-01,2022-09-10,2004-01-01,2021-01-01,208.3836757514752
501,KSAZ0,4604,KSAZ0,Staples,US,MN,,KSAZ,46.3809,-94.8066,393.0,America/Chicago,2006-01-01,2022-09-22,2006-01-01,2022-04-24,2006-01-01,2022-01-01,618.2650391298951
456,KOZW0,4598,KOZW0,Howell / Burkhart Ridge Mobile Home Park,US,MI,,KOZW,42.6294,-83.9822,293.0,America/Detroit,2006-01-01,2022-09-22,2006-01-01,2022-04-25,2007-01-01,2022-01-01,30.548844226664635
181,K4I30,4590,K4I30,Mount Vernon-Knox Co / Brandon,US,OH,,K4I3,40.3289,-82.5261,363.0,America/New_York,2008-02-29,2022-09-21,2008-03-02,2022-03-09,2011-01-01,2021-01-01,145.30836811168066
446,KOSH0,4581,KOSH0,Oshkosh / Stony Beach,US,WI,,KOSH,43.9844,-88.557,246.0,America/Chicago,2006-01-01,2022-09-22,2006-01-01,2022-04-24,2006-01-01,2022-01-01,271.99288623187374
437,KOKK0,4571,KOKK0,Kokomo / Vermont,US,IN,,KOKK,40.5282,-86.059,253.0,America/Indiana/Indianapolis,2006-01-01,2022-09-22,2006-01-01,2022-04-24,2006-01-01,2022-01-01,167.73736641167838
443,KOOA0,4561,KOOA0,Oskaloosa / Cedar,US,IA,,KOOA,41.2261,-92.4938,256.0,America/Chicago,2006-01-01,2022-09-22,2006-01-04,2022-04-24,2012-01-01,2022-01-01,457.29476822795846
438,KOLG0,4555,KOLG0,Solon Springs,US,WI,,KOLG,46.3148,-91.8164,336.0,America/Chicago,2020-01-14,2022-09-22,2020-01-14,2022-04-24,2020-01-01,2022-01-01,489.6459149826387
513,KSUE0,4555,KSUE0,Sturgeon Bay / Highland Heights Mobile Village,US,WI,,KSUE,44.8437,-87.4216,221.0,America/Chicago,2006-01-01,2022-09-22,2006-01-01,2022-04-24,2008-01-01,2022-01-01,258.4477245250061
503,KSFY0,4554,KSFY0,Savanna / Ayers,US,IL,,KSFY,42.0458,-90.1079,188.0,America/Chicago,2006-08-03,2022-09-22,2011-03-15,2022-04-24,2011-01-01,2022-01-01,327.0006382269547
445,KOSC0,4547,KOSC0,Oscoda / Whispering Woods Mobile Home Community,US,MI,,KOSC,44.4515,-83.3942,193.0,America/Detroit,1943-07-01,2022-09-22,1943-07-02,2022-04-25,1943-01-01,2022-01-01,154.85725798840036
233,KBKX0,4533,KBKX0,Brookings,US,SD,,KBKX,44.3048,-96.8169,502.0,America/Chicago,2006-01-01,2022-09-22,2006-01-01,2022-04-24,2006-01-01,2022-01-01,674.1350287399814
186,K9D70,4521,K9D70,Cando,US,ND,,K9D7,48.48,-99.2364,452.0,America/Chicago,2010-11-18,2022-09-22,2010-11-19,2021-10-18,2014-01-01,2016-01-01,866.9449144623665
430,KMXO0,4485,KMXO0,Monticello,US,IA,,KMXO,42.2204,-91.1633,254.0,America/Chicago,2006-01-01,2022-05-20,2006-01-01,2022-04-24,2014-01-01,2022-01-01,380.4227283022207
249,KCBF0,4443,KCBF0,Council Bluffs / Gilliatt,US,IA,,KCBF,41.2601,-95.7587,380.0,America/Chicago,2006-01-01,2022-09-22,2006-01-01,2022-04-24,2011-01-01,2022-01-01,623.9623382601698
444,KORB0,4440,KORB0,Orr / Glendale,US,MN,,KORB,48.0159,-92.8561,400.0,America/Chicago,2006-01-01,2022-09-22,2006-01-01,2022-04-11,2006-01-01,2022-01-01,597.943097962108
512,KSTP0,4437,KSTP0,Saint Paul,US,MN,,KSTP,44.9346,-93.0603,215.0,America/Chicago,1983-11-03,2022-09-22,1991-12-16,2022-04-24,2005-01-01,2022-01-01,503.2051800611909
506,KSJX0,4419,KSJX0,Beaver Island / Bonner Landing,US,MI,,KSJX,45.6923,-85.5666,204.0,America/Detroit,2006-01-01,2022-09-22,2006-01-01,2022-04-25,2006-01-01,2022-01-01,256.1458131176536
187,KACB0,4417,KACB0,Bellaire,US,MI,,KACB,44.9886,-85.1984,190.0,America/Detroit,2006-01-01,2022-09-22,2006-01-01,2022-04-24,2008-01-01,2022-01-01,204.35697420467517
180,K46D0,4416,K46D0,Carrington,US,ND,,K46D,47.4511,-99.1513,490.0,America/Chicago,2010-06-10,2022-09-21,2010-06-11,2022-03-09,2020-01-01,2020-01-01,836.6258367232922
440,KONA0,4404,KONA0,Winona / Country Valley Mobile Home Park,US,MN,,KONA,44.0772,-91.7083,200.0,America/Chicago,2006-01-01,2022-09-22,2006-01-01,2022-04-24,2006-01-01,2022-01-01,422.1227675204641
246,KC650,4371,KC650,Plymouth,US,IN,,KC65,41.3651,-86.3005,244.0,America/Indiana/Indianapolis,2020-01-14,2022-09-22,2020-01-14,2022-04-24,2020-01-01,2022-01-01,144.61888194876778
433,KOCQ0,4371,KOCQ0,Oconto,US,WI,,KOCQ,44.8742,-87.9096,184.0,America/Chicago,2014-07-31,2022-09-22,2014-08-06,2022-04-24,2020-01-01,2022-01-01,277.81459707810643
244,KC350,4368,KC350,Reedsburg / Maple Aire Mobile Village,US,WI,,KC35,43.5259,-89.9832,276.0,America/Chicago,2020-01-14,2022-09-22,2020-01-14,2022-04-24,2020-01-01,2022-01-01,329.1144640431073
228,KBFW0,4363,KBFW0,Silver Bay / Beaver Crossing,US,MN,,KBFW,47.249,-91.4156,332.0,America/Chicago,2006-01-01,2021-07-09,2006-01-01,2021-07-09,2006-01-01,2021-01-01,512.3303348671295
182,K4R50,4362,K4R50,La Pointe,US,WI,,K4R5,46.7887,-90.7587,198.0,America/Chicago,2016-11-11,2022-09-21,2016-11-12,2022-03-08,,,468.13303391415184
511,KSTE0,4339,KSTE0,Stevens Point / Park Ridge,US,WI,,KSTE,44.5451,-89.5303,338.0,America/Chicago,2006-01-01,2022-09-22,2006-01-01,2022-04-24,2006-01-01,2022-01-01,332.3473329019325
432,KMZZ0,4323,KMZZ0,Marion / Kiley,US,IN,,KMZZ,40.4899,-85.6797,262.0,America/Indiana/Indianapolis,2010-01-14,2022-09-22,2010-01-15,2022-04-25,2014-01-01,2022-01-01,156.25325085714198
505,KSHL0,4309,KSHL0,Sheldon,US,IA,,KSHL,43.2084,-95.8334,433.0,America/Chicago,2006-01-01,2022-09-22,2006-01-01,2022-04-24,2015-01-01,2022-01-01,618.4696390889706
185,K96D0,4296,K96D0,Walhalla,US,ND,,K96D,48.9406,-97.9028,291.0,America/Chicago,2010-11-18,2022-09-21,2010-11-19,2022-03-09,2016-01-01,2016-01-01,826.5113187701978
455,KOXV0,4288,KOXV0,Knoxville / Wheel Estates Mobile Home Park,US,IA,,KOXV,41.2991,-93.1137,283.0,America/Chicago,2006-01-01,2022-09-22,2006-01-01,2022-04-24,2014-01-01,2022-01-01,488.006163590511
510,KSQI0,4287,KSQI0,Sterling Rock Falls Airport / Yeoward Addition,US,IL,,KSQI,41.7428,-89.6763,197.0,America/Chicago,2006-01-01,2022-09-22,2006-01-01,2022-04-24,2007-01-01,2021-01-01,307.12985840654943
245,KC620,4259,KC620,Kendallville / Wakeville Village,US,IN,,KC62,41.4727,-85.2608,306.0,America/Indiana/Indianapolis,2020-01-14,2022-09-22,2020-01-14,2022-04-24,2020-01-01,2022-01-01,93.7795762107624
240,KBVI0,4254,KBVI0,Beaver Falls / West Mayfield,US,PA,,KBVI,40.7725,-80.3914,382.0,America/New_York,2006-01-02,2022-09-22,2019-07-24,2022-04-24,2020-01-01,2022-01-01,200.7415656293948
172,GUUD7,4249,GUUD7,Kincardine,CA,ON,,,44.17,-81.62,200.0,America/Toronto,,,2000-01-01,2022-04-14,2000-01-01,2010-01-01,172.00346404175468
428,KMWC0,4243,KMWC0,Milwaukee / Butler,US,WI,,KMWC,43.1104,-88.0344,227.0,America/Chicago,1973-01-01,2022-09-22,2020-01-14,2022-04-24,2020-01-01,2022-01-01,226.8667728505398
184,K8D30,4241,K8D30,Sisseton,US,SD,,K8D3,45.6708,-96.9962,354.0,America/Chicago,2006-01-01,2022-09-21,2006-01-01,2022-03-09,2006-01-01,2021-01-01,701.5016612860878
439,KOLZ0,4238,KOLZ0,Oelwein,US,IA,,KOLZ,42.6808,-91.9745,328.0,America/Chicago,2006-01-01,2022-09-22,2006-01-05,2022-04-24,2012-01-01,2022-01-01,421.6390143285184
257,KCKC0,4226,KCKC0,Grand Marais / Pine Mountain Trailer Court,US,MN,,KCKC,47.8383,-90.3829,548.0,America/Chicago,2006-01-01,2022-09-22,2006-01-01,2022-04-24,2006-01-01,2022-01-01,505.5601840605274
239,KBUU0,4223,KBUU0,Burlington,US,WI,,KBUU,42.6907,-88.3046,238.0,America/Chicago,2006-01-01,2022-09-22,2006-01-01,2022-04-24,2006-01-01,2022-01-01,235.21153110323309
247,KCAD0,4208,KCAD0,Cadillac / Cadillac Leisure Mobile Home Community,US,MI,,KCAD,44.2753,-85.4189,398.0,America/Detroit,1990-07-24,2022-09-22,1993-12-02,2022-04-24,2005-01-01,2022-01-01,164.9208355165477
514,KSUW0,4205,KSUW0,Superior / South Superior,US,WI,,KSUW,46.6897,-92.0947,205.0,America/Chicago,2006-01-01,2022-09-22,2006-01-01,2022-04-24,2007-01-01,2022-01-01,514.898111288681
509,KSPW0,4201,KSPW0,Spencer / Birchwood Estates,US,IA,,KSPW,43.1655,-95.2028,408.0,America/Chicago,2006-01-01,2022-09-22,2006-01-01,2022-04-24,2006-01-01,2021-01-01,586.5223944721447
250,KCBG0,4184,KCBG0,Cambridge / Pine Village Mobile Home Park,US,MN,,KCBG,45.5575,-93.2642,288.0,America/Chicago,2006-01-01,2022-09-22,2006-01-01,2022-04-20,2007-01-01,2022-01-01,527.6174847316393
255,KCGF0,4182,KCGF0,Cleveland / White Hill,US,OH,,KCGF,41.5651,-81.4864,268.0,America/New_York,2006-01-08,2022-09-22,2020-01-14,2022-04-24,2020-01-01,2022-01-01,125.0294774722786
519,KTKV0,4174,KTKV0,Tomahawk / Jersey City,US,WI,,KTKV,45.4694,-89.8057,453.0,America/Chicago,2006-01-01,2022-09-22,2006-01-04,2022-04-24,2008-01-01,2022-01-01,376.5501521816791
448,KOTG0,4174,KOTG0,Worthington / Sungold Heights Mobile Home Park,US,MN,,KOTG,43.6551,-95.5792,480.0,America/Chicago,2006-01-01,2022-09-22,2006-01-01,2022-04-24,2006-01-01,2022-01-01,607.7098366187491
434,KODX0,4165,KODX0,Ord / Manchester Trailer Court,US,NE,,KODX,41.6237,-98.9519,631.0,America/Chicago,2006-01-01,2022-09-22,2006-01-01,2022-04-24,2006-01-01,2022-01-01,783.8248030083657
251,KCCY0,4143,KCCY0,Charles City / Doubleday,US,IA,,KCCY,43.0726,-92.6108,343.0,America/Chicago,2006-01-01,2022-09-22,2006-01-01,2022-04-24,2014-01-01,2022-01-01,455.3026856825426
179,K2C80,4117,K2C80,Cavalier,US,ND,,K2C8,48.7837,-97.632,272.0,America/Chicago,2010-11-18,2022-09-22,2010-11-19,2022-03-09,2014-01-01,2019-01-01,810.4689649684917
523,KTTF0,4076,KTTF0,Monroe / Patterson Gardens,US,MI,,KTTF,41.9399,-83.4347,188.0,America/Detroit,2006-01-01,2022-09-22,2006-01-01,2022-04-25,2006-01-01,2022-01-01,25.24479662158989
248,KCAV0,4076,KCAV0,Clarion,US,IA,,KCAV,42.7419,-93.7589,353.0,America/Chicago,2006-01-01,2022-09-22,2006-01-01,2022-04-24,2014-01-01,2022-01-01,512.532707892545
176,IU5MI,4058,IU5MI,Bonner Lake,CA,ON,,,49.38,-82.12,245.0,America/Nipigon,,,2000-05-01,2022-09-15,2000-01-01,2022-01-01,500.4544468179096
515,KSYN0,4056,KSYN0,Stanton,US,MN,,KSYN,44.4755,-93.0163,280.0,America/Chicago,2006-01-01,2022-09-22,2006-01-04,2022-04-24,2006-01-01,2022-01-01,491.9238953904513
517,KTEW0,4045,KTEW0,Mason,US,MI,,KTEW,42.5658,-84.4232,280.0,America/Detroit,2006-01-01,2022-09-22,2006-01-01,2022-04-25,2007-01-01,2022-01-01,41.971948449391
178,K06D0,4025,K06D0,Rolla,US,ND,,K06D,48.8844,-99.6208,556.0,America/Chicago,2010-11-18,2022-09-21,2010-11-19,2022-03-09,2017-01-01,2017-01-01,894.5527693378323
169,FO7ZN,4013,FO7ZN,Strathroy-mullifarry,CA,ON,,,42.98,-81.64,243.0,America/Toronto,,,2000-01-01,2022-09-12,2000-01-01,2022-01-01,119.40587107359138
522,KTQE0,4001,KTQE0,Tekamah / Westside Mobile Home Park,US,NE,,KTQE,41.7635,-96.1779,313.0,America/Chicago,2006-01-01,2022-09-22,2006-01-01,2022-04-24,2006-01-01,2021-01-01,640.3123646279017
442,KONZ0,4000,KONZ0,Grosse Ile / Gibraltar,US,MI,,KONZ,42.0991,-83.1615,180.0,America/Detroit,2006-01-01,2022-09-22,2006-01-01,2022-04-25,2008-01-01,2022-01-01,31.189316003627013
516,KTDZ0,3975,KTDZ0,Toledo / Cummings (Historical),US,OH,,KTDZ,41.5649,-83.4822,190.0,America/New_York,2006-01-01,2022-09-22,2006-01-01,2022-04-24,2006-01-01,2022-01-01,47.40709061899493
256,KCIU0,3943,KCIU0,Sault Ste Marie / Kinross,US,MI,,KCIU,46.2507,-84.4724,244.0,America/Detroit,2006-01-01,2022-09-22,2006-01-02,2022-04-24,2008-01-01,2021-01-01,280.41863882234304
422,KMQB0,3931,KMQB0,Macomb / Good Hope,US,IL,,KMQB,40.5201,-90.6524,215.0,America/Chicago,2006-02-01,2022-09-22,2006-02-15,2022-04-24,2012-01-01,2022-01-01,377.65713299744
527,KUBE0,3930,KUBE0,Cumberland,US,WI,,KUBE,45.506,-91.9811,379.0,America/Chicago,2011-03-09,2022-09-22,2011-03-12,2022-04-24,2012-01-01,2022-01-01,469.3470942122995
252,KCDD0,3921,KCDD0,Crane Lake,US,MN,,KCDD,48.2666,-92.4835,341.0,America/Chicago,2006-01-01,2022-09-22,2006-02-23,2022-04-24,2010-01-01,2021-01-01,595.8425429160773
259,KCKP0,3916,KCKP0,Cherokee / Onawa Junction,US,IA,,KCKP,42.7312,-95.5561,374.0,America/Chicago,2006-01-01,2022-09-22,2006-01-04,2022-04-24,2014-01-01,2022-01-01,603.9786201214464
424,KMRT0,3894,KMRT0,Marysville / Countryside Mobile Home Park,US,OH,,KMRT,40.2247,-83.3516,311.0,America/New_York,2009-07-21,2022-09-22,2009-07-22,2022-04-25,2011-01-01,2022-01-01,139.41854479172068
436,KOEO0,3864,KOEO0,Osceola,US,WI,,KOEO,45.3095,-92.69,276.0,America/Chicago,2006-01-01,2022-09-22,2006-01-01,2022-04-24,2006-01-01,2022-01-01,495.2782655806956
254,KCFS0,3843,KCFS0,Caro / Wahjamega,US,MI,,KCFS,43.45,-83.45,214.0,America/Detroit,2005-02-01,2022-09-22,2005-02-04,2022-04-24,2011-01-01,2022-01-01,86.01794146441704
262,KCMY0,3828,KCMY0,Sparta / Angelo,US,WI,,KCMY,43.9583,-90.7379,255.0,America/Chicago,2006-01-01,2022-09-22,2006-01-01,2022-04-24,2006-01-01,2021-01-01,373.3466206796588
431,KMZH0,3808,KMZH0,Moose Lake,US,MN,,KMZH,46.4186,-92.8048,328.0,America/Chicago,2006-01-01,2022-09-22,2006-01-01,2022-04-24,2006-01-01,2022-01-01,533.8656827721499
253,KCFE0,3803,KCFE0,Buffalo / Buffalo Manor East,US,MN,,KCFE,45.1592,-93.8433,295.0,America/Chicago,2005-01-01,2022-09-22,2005-01-01,2022-04-24,2007-01-01,2022-01-01,544.4726357733996
508,KSLH0,3800,KSLH0,Cheboygan,US,MI,,KSLH,45.6537,-84.5193,195.0,America/Detroit,2006-01-01,2022-09-22,2006-01-01,2022-04-25,2006-01-01,2022-01-01,239.98066688090063
518,KTKC0,3790,KTKC0,Tracy,US,MN,,KTKC,44.2491,-95.6073,408.0,America/Chicago,2006-01-01,2022-09-22,2006-01-04,2022-04-01,2008-01-01,2022-01-01,614.2136301975239
420,KMOX0,3784,KMOX0,Morris,US,MN,,KMOX,45.566,-95.9672,346.0,America/Chicago,2006-01-01,2022-09-22,2006-01-01,2022-04-24,2006-01-01,2022-01-01,651.5409621763624
520,KTNU0,3776,KTNU0,Newton / Coal Siding (Historical),US,IA,,KTNU,41.6744,-93.0217,291.0,America/Chicago,2006-01-01,2022-09-22,2006-01-01,2022-04-24,2011-01-01,2022-01-01,479.1853821309554
525,KTWM0,3768,KTWM0,Two Harbors / Waldo,US,MN,,KTWM,47.0491,-91.7452,327.0,America/Chicago,2006-01-01,2022-09-22,2006-01-03,2022-04-24,2007-01-01,2021-01-01,515.8616906435211
419,KMOP0,3751,KMOP0,Mt Pleasant / Broadway Acres Mobile Home Park,US,MI,,KMOP,43.6216,-84.7373,230.0,America/Detroit,2006-01-01,2022-09-22,2006-01-01,2022-04-24,2006-01-01,2022-01-01,108.86374024944683
165,D454J,3750,D454J,Monetville 2,CA,ON,,,46.22,-80.3,205.0,America/Toronto,,,2015-02-28,2022-09-18,2015-01-01,2022-01-01,324.62129573329565
521,KTOB0,3739,KTOB0,Dodge Center,US,MN,,KTOB,44.018,-92.8315,398.0,America/Chicago,2006-01-01,2022-09-22,2006-01-01,2022-03-30,2007-01-01,2022-01-01,475.5887214773892
258,KCKN0,3734,KCKN0,Crookston / Shirley,US,MN,,KCKN,47.8417,-96.6215,274.0,America/Chicago,2006-01-01,2022-09-22,2006-01-01,2022-04-24,2007-01-01,2022-01-01,738.8663286112119
177,JXPVQ,3723,JXPVQ,Geraldton Airport,CA,ON,,,49.78,-86.99,348.0,America/Nipigon,2020-01-01,2022-09-21,2018-10-29,2022-09-01,2018-01-01,2021-01-01,544.6536038393725
6,21O3U,3696,21O3U,Royal Island,CA,ON,71859.0,,49.47,-94.76,329.0,America/Rainy_River,2020-09-23,2022-09-20,2016-01-07,2022-09-17,2016-01-01,2022-01-01,728.770717802805
416,KMML0,3679,KMML0,Marshall,US,MN,,KMML,44.4517,-95.8244,361.0,America/Chicago,2006-01-01,2022-09-22,2006-01-01,2022-04-24,2008-01-01,2022-01-01,627.1328877300687
423,KMRJ0,3656,KMRJ0,Mineral Point / Linden,US,WI,,KMRJ,42.8868,-90.2362,357.0,America/Chicago,2006-01-01,2022-09-22,2006-01-01,2022-04-24,2007-01-01,2022-01-01,334.29160452269593
168,ERRXP,3647,ERRXP,Sudbury,CA,ON,71733.0,,46.63,-80.8,348.0,America/Toronto,2020-01-01,2022-09-21,2011-08-12,2022-09-19,1999-01-01,2022-01-01,337.3305068646622
174,HIIF6,3625,HIIF6,Wawa Airport,CA,ON,,,47.97,-84.79,288.0,America/Nipigon,2020-01-01,2022-09-21,2018-10-29,2022-09-19,2018-01-01,2022-01-01,400.1235887662229
175,I0EZ7,3611,I0EZ7,Cypress River RCS,CA,MB,71239.0,,49.56,-99.07,374.0,America/Winnipeg,2020-01-01,2022-09-21,2009-09-15,2022-09-18,2009-01-01,2022-01-01,893.3986822822357
1,0CO7B,3609,0CO7B,Kingsville Moe,CA,ON,,,42.04,-82.67,200.0,America/Toronto,,,2000-01-01,2022-09-17,2000-01-01,2021-01-01,56.68356443450756
171,GCHAU,3579,GCHAU,Schanzenfeld,CA,MB,,,49.13,-97.95,277.0,America/Winnipeg,,,2000-01-01,2022-09-18,2000-01-01,2021-01-01,834.7605834671963
270,KCWI0,3570,KCWI0,Clinton / Elvira,US,IA,,KCWI,41.8311,-90.3291,216.0,America/Chicago,2006-01-01,2022-09-22,2006-01-01,2022-04-24,2008-01-01,2022-01-01,339.7745414627552
421,KMPZ0,3567,KMPZ0,Mount Pleasant / Woodside Mobile Estates,US,IA,,KMPZ,40.9466,-91.5111,223.0,America/Chicago,2006-01-01,2022-09-22,2006-01-01,2022-04-24,2015-01-01,2022-01-01,411.7340029142701
528,KUCP0,3563,KUCP0,New Castle / Parkstown,US,PA,,KUCP,41.0254,-80.4134,326.0,America/New_York,2006-05-01,2022-09-22,2006-05-02,2022-04-24,2008-01-01,2022-01-01,191.30472950459597
170,FT7VY,3549,FT7VY,Timmins,CA,ON,71193.0,,48.56,-81.39,294.0,America/Toronto,2020-01-01,2022-09-21,2008-10-01,2022-09-18,2008-01-01,2022-01-01,452.3254128868925
150,74467,3540,74467,Chestervale,US,IL,74467.0,KAAA,40.15,-89.33,178.0,America/Chicago,2006-06-22,2022-09-22,2008-04-27,2022-04-25,2014-01-01,2022-01-01,324.2799463384184
160,ATA0X,3519,ATA0X,Roseville,CA,ON,,,43.35,-80.47,328.0,America/Toronto,,,2000-01-01,2022-09-17,2000-01-01,2022-01-01,183.79446938206337
426,KMUT0,3513,KMUT0,Muscatine / Fruitland,US,IA,,KMUT,41.3678,-91.1482,167.0,America/Chicago,2006-01-01,2022-09-22,2006-01-01,2022-04-24,2011-01-01,2022-01-01,386.7125006727801
427,KMVE0,3509,KMVE0,Montevideo,US,MN,,KMVE,44.9691,-95.7103,316.0,America/Chicago,2006-01-01,2022-09-22,2006-01-01,2022-04-24,2006-01-01,2022-01-01,628.8491538880425
173,HEZQT,3502,HEZQT,Baldur,CA,MB,,,49.28,-99.29,450.0,America/Winnipeg,,,2000-01-01,2022-08-13,2000-01-01,2021-01-01,893.0866378070672
261,KCMI0,3476,KCMI0,Champaign / Savoy,US,IL,,KCMI,40.0388,-88.2778,230.0,America/Chicago,2006-01-01,2022-09-22,2006-01-01,2022-04-24,2006-01-01,2022-01-01,280.3596444657392
5,20QWH,3471,20QWH,Rennie,CA,MB,,,49.85,-95.53,323.0,America/Winnipeg,,,2000-01-01,2022-09-15,2000-01-01,2009-01-01,772.1467890298829
524,KTVC0,3448,KTVC0,Traverse City / Treverse City [Misspelling] / Town And Country Mobile Village,US,MI,,KTVC,44.7416,-85.5824,190.0,America/Detroit,1973-01-01,2022-09-22,1973-01-02,2022-04-24,1981-01-01,2022-01-01,196.8555339754713
268,KCVX0,3425,KCVX0,Charlevoix / Boulder Park,US,MI,,KCVX,45.3048,-85.2753,204.0,America/Detroit,2006-01-01,2022-09-22,2006-01-01,2022-04-24,2006-01-01,2022-01-01,226.10060545328088
265,KCOQ0,3410,KCOQ0,Cloquet,US,MN,,KCOQ,46.7011,-92.5036,390.0,America/Chicago,2006-01-01,2022-09-22,2006-01-01,2022-04-24,2007-01-01,2022-01-01,531.6117509001534
260,KCLI0,3402,KCLI0,Clintonville,US,WI,,KCLI,44.6133,-88.7307,251.0,America/Chicago,2006-01-01,2022-09-22,2006-01-01,2022-04-01,2007-01-01,2022-01-01,300.18114590125623
429,KMWM0,3389,KMWM0,Windom / Bingham Lake,US,MN,,KMWM,43.9134,-95.1094,430.0,America/Chicago,2006-01-01,2022-09-22,2006-01-01,2022-04-24,2007-01-01,2022-01-01,586.3472241064796
4,1JWST,3371,1JWST,Lake Superior Provincial Park,CA,ON,71640.0,,47.72,-84.81,401.0,America/Nipigon,2020-01-01,2022-09-21,2013-11-19,2022-09-19,2014-01-01,2022-01-01,383.1463448391664
3,1J1PJ,3371,1J1PJ,Gore Bay,CA,ON,71956.0,,45.88,-82.57,189.0,America/Nipigon,2020-01-01,2022-09-21,2010-07-09,2022-09-18,2010-01-01,2022-01-01,259.1772146573859
0,0CNUO,3362,0CNUO,Rawson Lake,CA,ON,,,49.65,-93.72,358.0,America/Rainy_River,,,2000-01-01,2022-08-10,2000-01-01,2022-01-01,701.7676669528157
162,CTGT0,3358,CTGT0,Guelph / University of Guelph,CA,ON,,CTGT,43.55,-80.2167,325.0,America/Toronto,2007-02-28,2022-03-24,2007-04-20,2022-03-05,2008-01-01,2021-01-01,201.1660512932681
7,2W8UZ,3353,2W8UZ,Chatham Kent,CA,ON,,,42.31,-82.08,197.0,America/Toronto,2020-01-01,2022-09-21,2018-10-29,2022-09-19,2018-01-01,2022-01-01,85.5976645075707
417,KMNM0,3352,KMNM0,Menominee / Bayside Mobile Estates,US,MI,,KMNM,45.1267,-87.6384,191.0,America/Chicago,2005-01-01,2022-09-22,2005-01-01,2022-04-24,2005-01-01,2022-01-01,279.641553236209
152,7Q717,3350,7Q717,Sarnia,CA,ON,71746.0,,43.0,-82.3,181.0,America/Toronto,2020-01-01,2022-09-20,2006-03-20,2022-09-18,2006-01-01,2022-01-01,91.15010471615624
526,KTYQ0,3337,KTYQ0,Indianapolis / Jolietville,US,IN,,KTYQ,40.0307,-86.2514,281.0,America/Indiana/Indianapolis,2014-01-01,2022-09-22,2014-01-01,2022-04-25,2014-01-01,2022-01-01,199.9361265470256
530,KUGN0,3334,KUGN0,Chicago / Bancroft Corners,US,IL,,KUGN,42.4222,-87.8679,222.0,America/Chicago,2006-01-01,2022-09-22,2006-01-01,2022-04-24,2006-01-01,2021-01-01,211.57136681194325
2,0FV1F,3331,0FV1F,Tillsonburg Wwtp,CA,ON,,,42.86,-80.72,213.0,America/Toronto,,,2000-01-01,2022-09-18,2000-01-01,2021-01-01,160.56015709302665
264,KCNC0,3305,KCNC0,Chariton / Whitebreast,US,IA,,KCNC,41.0196,-93.3597,320.0,America/Chicago,2006-01-01,2022-09-22,2006-01-01,2022-04-24,2014-01-01,2022-01-01,504.4623494481516
263,KCNB0,3290,KCNB0,Canby,US,MN,,KCNB,44.7295,-96.266,364.0,America/Chicago,2006-10-18,2022-09-22,2006-10-20,2022-04-24,2009-01-01,2022-01-01,652.0509846449283
164,CYSP0,3264,CYSP0,Marathon,CA,ON,,CYSP,48.7553,-86.3444,316.0,America/Nipigon,2007-10-25,2022-09-21,2020-01-14,2022-04-11,,,468.3726112171491
161,CACQ0,3262,CACQ0,Chatham / Vista-Villa Mobilehome Community,CA,NB,,CACQ,44.0735,-93.5529,343.0,America/Chicago,2006-01-01,2022-09-10,2006-01-04,2022-03-05,2006-01-01,2021-01-01,511.5565936988675
425,KMTW0,3236,KMTW0,Manitowac / Kellners Corners,US,WI,,KMTW,44.1288,-87.6806,198.0,America/Chicago,2006-01-01,2022-09-22,2006-01-01,2022-04-24,2008-01-01,2022-01-01,238.35163616719623
157,9H92X,3228,9H92X,Fergus Moe,CA,ON,,,43.7,-80.38,396.0,America/Toronto,,,2000-01-01,2022-08-15,2000-01-01,2019-01-01,198.74775597274868
532,KUNU0,3218,KUNU0,Juneau,US,WI,,KUNU,43.4265,-88.7038,285.0,America/Chicago,2006-01-01,2022-09-22,2006-01-01,2022-04-24,2009-01-01,2022-01-01,265.2243586429398
529,KUES0,3207,KUES0,Waukesha,US,WI,,KUES,43.041,-88.2371,278.0,America/Chicago,2006-01-01,2022-09-22,2015-06-01,2022-04-24,2020-01-01,2022-01-01,235.7526159325817
167,DRPUK,3201,DRPUK,Terrace Bay Airport,CA,ON,73018.0,,48.82,-87.09,290.0,America/Nipigon,2020-01-01,2022-09-21,2018-01-08,2022-09-19,2018-01-01,2022-01-01,483.5291222624184
267,KCSQ0,3198,KCSQ0,Creston / Country Court Mobile Home Park,US,IA,,KCSQ,41.0214,-94.3633,396.0,America/Chicago,2006-01-01,2022-09-22,2006-01-01,2022-04-24,2011-01-01,2022-01-01,555.6728280043633
156,93RHE,3194,93RHE,Wroxeter,CA,ON,,,43.86,-81.15,335.0,America/Toronto,,,2000-01-01,2021-06-15,2000-01-01,2020-01-01,173.30909304717574
266,KCQM0,3176,KCQM0,Cook,US,MN,,KCQM,47.8218,-92.6906,405.0,America/Chicago,2006-01-01,2022-09-22,2006-01-01,2022-04-24,2006-01-01,2022-01-01,583.5889965630477
409,KMHE0,3161,KMHE0,Mitchell / River Bluff Addition,US,SD,,KMHE,43.7748,-98.0386,398.0,America/Chicago,2006-01-01,2022-09-22,2006-01-01,2022-04-24,2006-01-01,2022-01-01,731.1331070958784
271,KD250,3143,KD250,Manitowish Waters,US,WI,,KD25,46.122,-89.8823,491.0,America/Chicago,2011-12-15,2022-09-22,2011-12-16,2022-04-24,2012-01-01,2022-01-01,406.552629496978
533,KUSE0,3143,KUSE0,Wauseon / Ottokee,US,OH,,KUSE,41.6101,-84.1272,238.0,America/New_York,2020-01-14,2022-09-22,2020-01-14,2022-04-25,2020-01-01,2022-01-01,46.65027516719817
531,KULM0,3117,KULM0,New Ulm / Traulich Estates,US,MN,,KULM,44.3197,-94.5023,308.0,America/Chicago,2006-01-01,2022-09-22,2006-01-01,2022-04-24,2006-01-01,2022-01-01,561.1112459614867
163,CXQT0,3114,CXQT0,Thunder Bay,CA,ON,,CXQT,48.4333,-89.2167,190.0,America/Thunder_Bay,2020-04-20,2022-05-18,2020-04-21,2021-05-12,,,504.626874156869
166,DCBG8,3111,DCBG8,Winnipeg Charleswood 2,CA,MB,,,49.85,-97.27,238.0,America/Winnipeg,,,2004-10-27,2022-06-01,2004-01-01,2022-01-01,834.8858607589615
269,KCWA0,3108,KCWA0,Mosinee,US,WI,,KCWA,44.7776,-89.6668,389.0,America/Chicago,2006-01-01,2022-09-22,2009-10-05,2022-04-24,2020-01-01,2022-01-01,345.7683868160876
535,KVLL0,3095,KVLL0,Troy / Birmingham,US,MI,,KVLL,42.5429,-83.1779,222.0,America/Detroit,2005-01-01,2022-09-22,2005-01-01,2022-04-25,2007-01-01,2022-01-01,36.488693251483625
272,KD390,3082,KD390,Sauk Centre,US,MN,,KD39,45.7066,-94.9334,379.0,America/Chicago,2020-01-14,2022-09-19,2020-01-14,2022-04-24,2020-01-01,2022-01-01,606.8469879458302
9,4DUJO,3074,4DUJO,Fergus Shand Dam,CA,ON,,,43.73,-80.33,418.0,America/Toronto,,,2000-01-01,2022-09-18,2000-01-01,2022-01-01,201.94944276131008
154,8HNVP,3071,8HNVP,Wiarton Airport,CA,ON,,,44.74,-81.11,222.0,America/Toronto,2020-01-01,2022-09-21,2018-10-29,2022-09-19,2018-01-01,2022-01-01,218.48443857011333
13,71147,3057,71147,Carman U Of M CS,CA,MB,71147.0,CWNK,49.5,-98.03,268.0,America/Winnipeg,1996-11-01,2022-09-22,1995-06-27,2022-09-18,1995-01-01,2022-01-01,850.7261511763694
15,71170,3053,71170,Carberry CS,CA,MB,71170.0,CWCM,49.91,-99.36,384.0,America/Winnipeg,1994-09-01,2022-09-20,1994-07-27,2022-09-18,1995-01-01,2022-01-01,916.5088167539558
413,KMJQ0,3048,KMJQ0,Jackson,US,MN,,KMJQ,43.65,-94.9865,441.0,America/Chicago,2006-01-01,2022-09-22,2006-01-01,2022-04-24,2006-01-01,2022-01-01,578.1069562276747
159,9W5OW,3042,9W5OW,Barwick,CA,ON,,,48.63,-93.97,335.0,America/Chicago,,,2000-01-01,2022-09-16,2000-01-01,2022-01-01,664.5202470605726
414,KMKT0,3011,KMKT0,Mankato / Knollwood Park,US,MN,,KMKT,44.2228,-93.9193,311.0,America/Menominee,2006-01-01,2022-09-22,2006-01-01,2022-04-24,2006-01-01,2022-01-01,531.4373625570726
14,71148,3002,71148,Pilot Mound,CA,MB,71148.0,CWPO,49.19,-98.9,470.0,America/Winnipeg,1957-12-04,2022-09-22,1957-12-01,2022-09-18,1957-01-01,2022-01-01,874.5568568704755
539,KVTA0,3001,KVTA0,Newark / Central City (Historical),US,OH,,KVTA,40.0247,-82.4618,269.0,America/New_York,2006-01-01,2022-09-22,2006-01-01,2022-04-24,2006-01-01,2022-01-01,165.82593074504035
153,7ZTNB,2982,7ZTNB,Massey,CA,ON,,,46.19,-82.02,200.0,America/Toronto,,,2000-01-01,2022-09-13,2000-01-01,2022-01-01,286.9739179193301
158,9M4XD,2965,9M4XD,Sault Ste. Marie Airport,CA,ON,73070.0,,46.48,-84.52,187.0,America/Toronto,2020-01-01,2022-09-21,2019-02-09,2022-09-20,2019-01-01,2022-01-01,296.4186378630099
149,74455,2948,74455,"Davenport, Ia.",US,IA,74455.0,KDVN,41.6167,-90.5833,229.0,America/Chicago,2005-01-01,2022-09-22,2005-01-01,2022-04-25,2006-01-01,2022-01-01,354.83049774770177
10,5RUZT,2936,5RUZT,Woodstock,CA,ON,,,43.14,-80.77,282.0,America/Toronto,,,2000-01-01,2022-09-09,2000-01-01,2006-01-01,164.21712339043816
534,KVES0,2934,KVES0,Versailles / Needmore,US,OH,,KVES,40.2044,-84.5319,307.0,America/New_York,2010-03-08,2022-09-22,2010-03-09,2022-04-25,2015-01-01,2022-01-01,145.1992026483215
410,KMIC0,2919,KMIC0,Minneapolis / Brooklyn Center,US,MN,,KMIC,45.062,-93.3539,265.0,America/Chicago,2006-01-01,2022-09-22,2006-01-01,2022-04-24,2006-01-01,2021-01-01,519.6491087544881
536,KVNW0,2918,KVNW0,Van Wert / Crow's Trailer Court,US,OH,,KVNW,40.8647,-84.6094,240.0,America/New_York,2020-01-14,2022-09-22,2020-01-14,2022-04-21,2020-01-01,2022-01-01,103.88682873446754
21,71283,2916,71283,Oliphant  Ont,CA,AB,,CWDF,44.7333,-81.2833,182.0,America/Toronto,,,2008-06-06,2022-09-18,2008-01-01,2022-01-01,212.94539721350935
16,71172,2912,71172,Parry Sound,CA,ON,71172.0,CXPC,45.34,-80.04,176.0,America/Nipigon,2004-08-03,2022-09-22,2002-10-03,2022-09-18,2002-01-01,2022-01-01,283.950926627458
275,KDEH0,2903,KDEH0,Decorah / Freeport,US,IA,,KDEH,43.2755,-91.7394,353.0,America/Chicago,2006-01-01,2022-09-22,2006-01-01,2022-04-24,2014-01-01,2022-01-01,412.9353079247841
418,KMNN0,2891,KMNN0,Marion / Logan (Historical),US,OH,,KMNN,40.6163,-83.0635,303.0,America/New_York,2006-01-01,2022-09-22,2006-01-01,2022-04-21,2006-01-01,2022-01-01,116.40214917978744
415,KMLE0,2878,KMLE0,Omaha / Millard,US,NE,,KMLE,41.196,-96.1123,320.0,America/Chicago,2006-01-01,2022-09-22,2006-01-01,2022-04-24,2006-01-01,2022-01-01,642.8776589709018
8,3S56J,2848,3S56J,Rawson Lake,CA,ON,71855.0,,49.66,-93.73,435.0,America/Rainy_River,2020-01-01,2022-09-20,2003-12-01,2022-09-18,2003-01-01,2021-01-01,702.5677577138224
273,KD550,2837,KD550,Langdon,US,ND,,KD55,48.7531,-98.3937,490.0,America/Chicago,2020-01-14,2022-09-22,2020-01-14,2022-04-24,2020-01-01,2022-01-01,840.2382606558633
11,6URQB,2836,6URQB,Portage La Prairie CDA,CA,MB,,,49.95,-98.27,259.0,America/Winnipeg,,,2000-01-01,2022-09-16,2000-01-01,2022-01-01,876.1028198691641
542,KVYS0,2811,KVYS0,Peru / Dalzell,US,IL,,KVYS,41.3519,-89.1531,199.0,America/Chicago,2006-10-12,2022-09-22,2011-03-16,2022-04-25,2014-01-01,2022-01-01,285.6512955888484
12,71140,2775,71140,Brandon Airport,CA,MB,71140.0,CYBR,49.91,-99.95,409.0,America/Winnipeg,1977-07-01,2022-09-22,1941-07-01,2022-09-19,1941-01-01,2022-01-01,939.5808714929724
17,71260,2769,71260,Sault Ste Marie Airport,CA,ON,71260.0,CYAM,46.49,-84.51,192.0,America/Toronto,1986-04-25,2022-09-22,1986-04-26,2022-09-19,1994-01-01,2022-01-01,297.0396863773898
392,KLVN0,2755,KLVN0,Minneapolis / Lakeville,US,MN,,KLVN,44.6279,-93.2281,293.0,America/Chicago,2006-01-01,2022-09-22,2006-01-01,2022-04-24,2007-01-01,2022-01-01,504.8178987542485
276,KDET0,2745,KDET0,Detroit / Hamtramck,US,MI,,KDET,42.4092,-83.0099,191.0,America/Detroit,1973-01-01,2022-09-22,1973-01-01,2022-04-24,1981-01-01,2022-01-01,39.817534408803226
543,KXNWG,2720,KXNWG,Windsor Riverside,CA,ON,,,42.33,-82.93,188.0,America/Toronto,,,2000-01-01,2022-09-16,2000-01-01,2022-01-01,42.45284307215365
400,KMCD0,2709,KMCD0,Mackinac Island / British Landing,US,MI,,KMCD,45.8649,-84.6373,226.0,America/Detroit,2006-01-01,2022-09-22,2006-01-01,2022-04-24,2008-01-01,2022-01-01,255.33212072313648
537,KVOK0,2705,KVOK0,Volk / Camp Douglas,US,WI,,KVOK,43.9392,-90.2532,278.0,America/Chicago,1961-10-01,2022-09-22,1962-10-25,2022-04-22,1966-01-01,2021-01-01,349.8314165932526
404,KMDZ0,2692,KMDZ0,Medford / Little Black,US,WI,,KMDZ,45.1015,-90.3008,451.0,America/Chicago,2006-01-01,2022-09-22,2006-01-01,2022-04-24,2006-01-01,2022-01-01,383.7866887330373
138,72656,2682,72656,"Winner, Bob Wiley Field Airport",US,SD,72656.0,KSFD,43.3833,-99.8333,619.0,America/Chicago,,,1893-01-01,2022-09-14,1893-01-01,2022-01-01,820.3403435250815
541,KVVV0,2679,KVVV0,Ortonville / Hilltop Manor Mobile Home Park,US,MN,,KVVV,45.3057,-96.4244,336.0,America/Chicago,2006-01-01,2022-09-22,2006-01-01,2022-04-25,2008-01-01,2022-01-01,668.2667559239544
545,KY230,2669,KY230,Chetek,US,WI,,KY23,45.3062,-91.6362,322.0,America/Chicago,2020-01-14,2022-09-22,2020-01-14,2022-04-25,2020-01-01,2022-01-01,448.2399699185469
411,KMIE0,2649,KMIE0,Muncie / Drew,US,IN,,KMIE,40.2425,-85.3958,286.0,America/Indiana/Indianapolis,2006-01-01,2022-09-22,2006-01-01,2022-04-24,2006-01-01,2022-01-01,161.4518775811854
407,KMGG0,2646,KMGG0,Maple Lake,US,MN,,KMGG,45.236,-93.9856,313.0,America/Chicago,2006-01-01,2022-09-22,2006-01-01,2022-04-24,2007-01-01,2021-01-01,552.7386247832497
394,KLWD0,2641,KLWD0,Lamoni / Togo (Historical),US,IA,,KLWD,40.6333,-93.9022,345.0,America/Chicago,2006-01-01,2022-09-22,2006-01-01,2022-04-24,2006-01-01,2021-01-01,538.4626981498113
278,KDKB0,2633,KDKB0,De Kalb / Cortland,US,IL,,KDKB,41.9338,-88.7057,279.0,America/Chicago,2006-01-02,2022-09-22,2008-03-04,2022-04-24,2014-01-01,2022-01-01,255.78089289475705
274,KD950,2632,KD950,Lapeer / Lapeer Meadows Mobile Home Park,US,MI,,KD95,43.0664,-83.2718,255.0,America/Detroit,2013-01-01,2022-09-22,2013-01-01,2022-04-24,2013-01-01,2022-01-01,63.02388954473152
402,KMCX0,2631,KMCX0,Monticello / Cedar Point,US,IN,,KMCX,40.7088,-86.7668,206.0,America/Indiana/Indianapolis,2020-01-14,2022-09-22,2020-01-14,2022-04-24,2020-01-01,2022-01-01,188.43427039437617
538,KVPZ0,2631,KVPZ0,Valparaiso / Williamsburg Manor,US,IN,,KVPZ,41.454,-87.0071,235.0,America/Chicago,2006-01-01,2022-09-22,2006-01-01,2022-04-24,2006-01-01,2021-01-01,176.48426851303958
283,KDPA0,2624,KDPA0,Chicago / Surrey Woods,US,IL,,KDPA,41.9069,-88.2482,231.0,America/Chicago,2006-01-01,2022-09-22,2006-01-01,2022-04-24,2006-01-01,2021-01-01,232.5606489374832
18,71261,2624,71261,Goderich,CA,ON,71261.0,CWGD,43.77,-81.72,214.0,America/Toronto,1981-10-26,2022-09-22,1981-10-27,2022-09-20,1983-01-01,2022-01-01,148.10639571311594
155,8ZB0I,2621,8ZB0I,Kleefeld (mafri),CA,MB,71646.0,,49.52,-96.9,246.0,America/Winnipeg,2020-01-01,2022-09-21,2014-09-17,2022-09-19,2014-01-01,2022-01-01,808.417487368648
288,KDXX0,2615,KDXX0,Madison,US,MN,,KDXX,44.9864,-96.1778,330.0,America/Chicago,2006-01-01,2022-09-22,2006-01-01,2022-04-24,2007-01-01,2022-01-01,651.4446800557663
552,KYIP0,2607,KYIP0,Detroit / Denton,US,MI,,KYIP,42.2393,-83.531,218.0,America/Detroit,1973-01-01,2022-09-22,1973-01-03,2022-04-24,2005-01-01,2022-01-01,11.06510498540876
19,71270,2604,71270,Collingwood,CA,ON,71270.0,CWCO,44.5,-80.22,180.0,America/Toronto,1994-12-01,2022-09-22,1994-12-30,2022-09-18,1995-01-01,2022-01-01,237.11643024214183
282,KDNV0,2586,KDNV0,Danville / Campbell,US,IL,,KDNV,40.1997,-87.5955,212.0,America/Chicago,2006-01-03,2022-09-22,2007-12-05,2022-04-24,2015-01-01,2022-01-01,244.38716507675585
544,KXVG0,2583,KXVG0,Longville,US,MN,,KXVG,47.0,-94.2,407.0,America/Chicago,2006-01-01,2022-09-22,2006-01-02,2022-04-06,2008-01-01,2022-01-01,611.3258900945591
412,KMIW0,2571,KMIW0,Marshalltown / Maulsby,US,IA,,KMIW,42.1127,-92.9178,297.0,America/Chicago,2006-01-01,2022-09-22,2006-01-01,2022-04-24,2006-01-01,2021-01-01,470.786166643102
280,KDLZ0,2569,KDLZ0,Delaware / Sunnyview Farms,US,OH,,KDLZ,40.2797,-83.1148,288.0,America/New_York,2011-03-15,2022-09-22,2011-03-16,2022-04-24,2011-01-01,2022-01-01,138.06873085833337
20,71273,2562,71273,Belle River,CA,SK,,KWDD,42.3,-82.7,184.0,America/Toronto,1994-12-01,2022-08-23,1995-01-07,2022-09-18,2009-01-01,2022-01-01,53.87011311418829
286,KDUH0,2560,KDUH0,Lambertville / Elden Heights,US,MI,,KDUH,41.7359,-83.6558,204.0,America/Detroit,2006-01-01,2022-09-22,2006-01-01,2022-04-24,2006-01-01,2022-01-01,33.93499084188118
284,KDRM0,2556,KDRM0,Drummond Island,US,MI,,KDRM,46.0093,-83.7439,204.0,America/Detroit,2006-08-31,2022-09-22,2006-10-04,2022-04-24,2008-01-01,2021-01-01,261.41890842772466
279,KDLL0,2551,KDLL0,Baraboo / West Baraboo,US,WI,,KDLL,43.522,-89.7709,298.0,America/Chicago,2006-01-01,2022-09-22,2006-01-01,2022-04-24,2008-01-01,2022-01-01,318.7009904107284
551,KY700,2539,KY700,Ionia / Canterbury Estates Mobile Home Park,US,MI,,KY70,42.938,-85.0606,249.0,America/Detroit,2014-07-31,2022-09-22,2014-08-01,2022-04-25,2020-01-01,2022-01-01,83.27642750098184
408,KMGN0,2532,KMGN0,Harbor Springs / Menonaqua Beach,US,MI,,KMGN,45.4256,-84.9134,209.0,America/Detroit,2006-01-01,2022-09-22,2006-01-01,2022-04-24,2006-01-01,2022-01-01,228.674828849704
540,KVTI0,2527,KVTI0,Vinton,US,IA,,KVTI,42.2186,-92.0259,257.0,America/Chicago,2006-01-01,2022-09-22,2006-01-01,2022-04-25,2015-01-01,2022-01-01,424.6349310851978
403,KMDS0,2521,KMDS0,Madison,US,SD,,KMDS,44.0164,-97.0856,524.0,America/Chicago,2009-03-14,2022-09-22,2009-03-30,2022-04-24,2010-01-01,2022-01-01,685.0523946576599
548,KY500,2521,KY500,Wautoma,US,WI,,KY50,44.0416,-89.3045,262.0,America/Chicago,2014-07-31,2022-09-22,2014-08-01,2022-04-24,2020-01-01,2022-01-01,307.72684784725163
281,KDNS0,2508,KDNS0,Denison / Kimze,US,IA,,KDNS,41.9866,-95.3805,388.0,America/Chicago,2006-01-01,2022-09-22,2006-01-01,2022-04-24,2014-01-01,2022-01-01,597.7517609491673
550,KY630,2501,KY630,Elbow Lake,US,MN,,KY63,45.9861,-95.992,368.0,America/Chicago,2014-07-31,2022-09-22,2014-08-01,2022-04-25,2020-01-01,2022-01-01,661.4437101681046
277,KDFI0,2491,KDFI0,Defiance / Brunersburg,US,OH,,KDFI,41.3375,-84.4288,216.0,America/New_York,2006-01-01,2022-09-22,2006-01-01,2022-04-19,2006-01-01,2021-01-01,70.57095913572009
401,KMCW0,2487,KMCW0,Mason City / Orchard Park Mobile Home Court,US,IA,,KMCW,43.1578,-93.3313,370.0,America/Chicago,1973-01-01,2022-09-22,1973-01-01,2022-04-24,1975-01-01,2022-01-01,492.07958670137697
554,L1YUU,2487,L1YUU,Thunder Bay Burwood,CA,ON,,,48.41,-89.28,200.0,America/Thunder_Bay,,,2005-11-01,2020-03-25,2005-01-01,2014-01-01,504.9229753606924
287,KDVP0,2475,KDVP0,Davenport / Slayton,US,IA,,KDVP,43.9868,-95.7826,495.0,America/Chicago,2005-08-11,2022-09-13,2005-08-12,2022-04-24,2006-01-01,2022-01-01,620.2983926899153
395,KLXL0,2474,KLXL0,Little Falls / Gregory,US,MN,,KLXL,45.9494,-94.3471,342.0,America/Chicago,2006-01-01,2022-09-22,2006-01-01,2022-04-24,2007-01-01,2022-01-01,586.3321938920424
546,KY310,2468,KY310,West Branch / Twin Pines Mobile Home Park,US,MI,,KY31,44.2448,-84.1798,269.0,America/Detroit,2020-01-14,2022-09-22,2020-01-14,2022-04-25,2020-01-01,2022-01-01,141.2798016571718
23,71292,2467,71292,Cyprus Lake / Tobermory,CA,ON,,CXCY,45.2333,-81.5333,190.0,America/Toronto,2003-06-17,2022-08-23,2004-09-22,2022-09-18,2008-01-01,2022-01-01,235.4744027253901
24,71298,2463,71298,Harrow CDA,CA,ON,71298.0,CXHA,42.03,-82.9,191.0,America/Toronto,2003-06-17,2022-09-22,2000-07-26,2022-09-18,2000-01-01,2022-01-01,45.442063683100734
285,KDTL0,2461,KDTL0,Detroit Lakes / Richards,US,MN,,KDTL,46.8252,-95.8856,426.0,America/Chicago,2006-01-01,2022-09-22,2006-01-01,2022-04-24,2006-01-01,2022-01-01,677.6267159683405
387,KLNR0,2439,KLNR0,Lone Rock,US,WI,,KLNR,43.2119,-90.1798,219.0,America/Chicago,1973-01-01,2022-09-22,2004-01-03,2022-04-24,2005-01-01,2022-01-01,334.43918830851663
549,KY510,2439,KY510,Viroqua,US,WI,,KY51,43.5794,-90.8965,394.0,America/Chicago,2014-07-31,2022-09-22,2014-08-06,2022-04-25,2020-01-01,2022-01-01,374.6449861144069
151,7FZD7,2435,7FZD7,Brandon RCS,CA,MB,71136.0,,49.9,-99.95,409.0,America/Winnipeg,2020-01-01,2022-09-21,2012-01-09,2022-09-19,2012-01-01,2022-01-01,939.2543631110732
397,KLYV0,2433,KLYV0,Luverne,US,MN,,KLYV,43.6168,-96.2177,437.0,America/Chicago,2006-01-01,2022-09-22,2006-01-04,2022-04-24,2007-01-01,2022-01-01,639.3901276863262
32,71435,2431,71435,Upsala,CA,ON,71435.0,CWDV,49.03,-90.47,488.0,America/Nipigon,1981-10-26,2022-09-22,1973-01-01,2022-09-18,1973-01-01,2022-01-01,571.4790082405755
135,72653,2430,72653,Chamberlain Municipal Airport,US,SD,72653.0,K9V9,43.7667,-99.3167,517.0,America/Chicago,2006-01-01,2022-09-21,1998-02-01,2022-09-12,1998-01-01,2022-01-01,794.9649611091746
405,KMFI0,2424,KMFI0,Marshfield / Bakerville,US,WI,,KMFI,44.6369,-90.1893,390.0,America/Chicago,2006-01-01,2022-09-22,2006-01-01,2022-04-24,2006-01-01,2022-01-01,364.3694104114117
134,72651,2420,72651,Sioux Falls Foss Field,US,SD,72651.0,KFSD,43.5833,-96.75,436.0,America/Chicago,1942-10-01,2022-09-22,1932-01-01,2022-09-14,1932-01-01,2022-01-01,665.8706956301661
147,72753,2405,72753,Hector International Airport,US,ND,72753.0,KFAR,46.9333,-96.8167,274.0,America/Chicago,1948-01-01,2022-09-22,1891-05-19,2022-09-14,1891-01-01,2022-01-01,721.176649692431
547,KY490,2391,KY490,Walker / Benedict,US,MN,,KY49,47.1596,-94.6454,411.0,America/Chicago,2020-01-14,2022-09-22,2020-01-14,2022-04-25,2020-01-01,2022-01-01,635.0562641520139
22,71291,2386,71291,Cameron Falls,CA,ON,71291.0,CXCA,49.15,-88.34,233.0,America/Nipigon,2003-06-17,2022-09-22,1998-03-09,2022-09-18,1998-01-01,2022-01-01,527.309502634679
133,72650,2386,72650,Spencer / Birchwood Estates,US,IA,72650.0,,43.1667,-95.15,408.0,America/Chicago,,,1895-02-01,2022-09-12,1895-01-01,2022-01-01,583.8604602454817
289,KDYT0,2384,KDYT0,Duluth / East End,US,MN,,KDYT,46.7219,-92.0434,186.0,America/Chicago,2006-01-01,2022-09-22,2006-01-01,2022-04-24,2010-01-01,2022-01-01,514.1192791625716
139,72658,2378,72658,Minneapolis-St Paul International,US,MN,72658.0,KMSP,44.8667,-93.05,256.0,America/Chicago,1945-01-01,2022-09-22,1938-04-09,2022-09-14,1938-01-01,2022-01-01,501.2513469747858
40,71464,2365,71464,Long Point,CA,ON,71464.0,CWPS,42.53,-80.05,175.0,America/Toronto,1986-01-09,2022-03-15,1986-05-02,2019-10-15,1996-01-01,2019-01-01,190.29560515623035
560,MVZI9,2339,MVZI9,Brantford Airport,CA,ON,71602.0,,43.14,-80.33,246.0,America/Toronto,2020-01-01,2022-09-21,2014-12-12,2022-09-19,2015-01-01,2022-01-01,185.09107353333107
140,72659,2335,72659,Aberdeen Regional Airport,US,SD,72659.0,KABR,45.45,-98.4167,397.0,America/Chicago,1973-01-01,2022-09-22,1893-01-01,2022-09-14,1893-01-01,2022-01-01,765.0109507697753
296,KEKM0,2332,KEKM0,Elkhart / Simonton Lake,US,IN,,KEKM,41.7194,-86.0017,237.0,America/Indiana/Indianapolis,2006-01-02,2022-09-22,,,,,121.28126722342222
39,71462,2329,71462,Great Duck Island,CA,ON,71462.0,CWNL,45.63,-82.95,183.0,America/Nipigon,1985-04-09,2021-05-12,1986-01-01,2021-05-11,1995-01-01,2020-01-01,238.54585197928984
406,KMGC0,2320,KMGC0,Michigan City / Davis,US,IN,,KMGC,41.7033,-86.8212,200.0,America/Chicago,2012-01-10,2022-09-22,2012-01-11,2022-04-24,2015-01-01,2022-01-01,162.42601467591382
136,72654,2319,72654,Huron Regional Airport,US,SD,72654.0,KHON,44.3833,-98.2333,393.0,America/Chicago,1973-01-01,2022-09-22,1881-07-01,2022-09-14,1881-01-01,2022-01-01,744.4458336950447
391,KLUM0,2312,KLUM0,Menomonie / Rusk,US,WI,,KLUM,44.8923,-91.8678,273.0,America/Chicago,2006-01-01,2022-09-22,2006-01-01,2022-04-24,2006-01-01,2022-01-01,447.22006319004896
398,KMBL0,2307,KMBL0,Manistee / Newland,US,MI,,KMBL,44.2725,-86.2469,189.0,America/Detroit,2006-01-01,2022-09-22,2006-01-01,2022-04-24,2008-01-01,2022-01-01,189.58467168576595
396,KLXN0,2306,KLXN0,Lexington / Donald Price Mobile Home Park,US,NE,,KLXN,40.7904,-99.7759,736.0,America/Chicago,2005-01-01,2022-09-22,2005-01-01,2022-04-24,2010-01-01,2022-01-01,836.196621627179
141,72734,2304,72734,Sault Ste. Marie Muni,US,MI,72734.0,KANJ,46.4833,-84.35,218.0,America/Detroit,1973-01-01,2022-09-22,1931-01-01,2022-09-14,1931-01-01,2022-01-01,295.6750192659254
27,71303,2301,71303,Point Pelee CS,CA,ON,71303.0,CXPT,41.95,-82.52,177.0,America/Toronto,2004-08-24,2022-09-20,1999-01-01,2022-09-18,1999-01-01,2022-01-01,65.76588939761638
386,KLNN0,2265,KLNN0,Willoughby / Woodbridge,US,OH,,KLNN,41.684,-81.3898,191.0,America/New_York,1983-11-03,2022-09-22,2015-01-09,2022-04-24,2015-01-01,2022-01-01,126.93541309969775
555,L6N28,2265,L6N28,New Glasgow,CA,ON,,,42.51,-81.64,198.0,America/Toronto,,,2000-01-01,2022-09-17,2000-01-01,2022-01-01,109.57661971984956
557,MAU7O,2260,MAU7O,Mono Centre,CA,ON,71098.0,,44.03,-80.02,436.0,America/Toronto,2020-01-01,2022-09-21,2013-11-19,2022-09-19,2013-01-01,2022-01-01,225.8976074829648
148,72755,2259,72755,Bemidji,US,MN,72755.0,KBJI,47.5,-94.9333,423.0,America/Chicago,2006-01-01,2022-09-22,1896-02-01,2022-09-09,1896-01-01,2022-01-01,658.2831366647191
143,72743,2249,72743,Marquette,US,MI,72743.0,KMQT,46.5333,-87.55,434.0,America/Detroit,1973-01-01,2022-08-29,1857-09-01,2022-09-14,1857-01-01,2022-01-01,352.12739055511787
26,71301,2242,71301,Kirkland Lake CS,CA,ON,71301.0,CYKX,48.15,-80.0,324.0,America/Nipigon,2004-09-21,2022-08-26,1997-06-02,2022-08-24,1997-01-01,2022-01-01,448.1676008121488
128,72643,2232,72643,La Crosse Municipal Airport,US,WI,72643.0,KLSE,43.8833,-91.25,199.0,America/Chicago,1948-01-01,2022-09-22,1938-04-01,2022-09-14,1938-01-01,2022-01-01,396.643743420533
144,72744,2224,72744,Hancock Houghton Cty. Memo,US,MI,72744.0,KCMX,47.1667,-88.4833,334.0,America/Detroit,1973-01-01,2022-09-22,1948-01-01,2022-09-13,1948-01-01,2022-01-01,413.31619299675503
137,72655,2219,72655,Saint Cloud / St Cloud / Cable,US,MN,72655.0,KSTC,45.5466,-94.0599,314.0,America/Chicago,1973-01-01,2022-09-22,1904-09-01,2022-09-14,1904-01-01,2022-01-01,563.2843800866341
142,72741,2203,72741,Park Falls,US,WI,72741.0,KPKF,45.9333,-90.45,462.0,America/Chicago,1973-01-01,2001-02-03,1910-05-01,2022-09-13,1910-01-01,2021-01-01,420.4335732623669
35,71441,2201,71441,Gretna,CA,MB,71441.0,CWGN,49.03,-97.56,253.0,America/Winnipeg,1981-10-26,2022-09-20,1885-04-20,2022-09-18,1885-01-01,2022-01-01,815.9604488886299
25,71299,2184,71299,Kapuskasing CDA On,CA,ON,71299.0,CXKA,49.41,-82.44,218.0,America/Nipigon,2003-06-17,2022-09-22,2000-08-23,2022-09-18,2000-01-01,2022-01-01,500.3293995447527
290,KEAR0,2184,KEAR0,Kearney / Buda,US,NE,,KEAR,40.727,-99.0068,650.0,America/Chicago,2006-01-01,2022-09-22,2006-01-01,2022-04-24,2006-01-01,2021-01-01,797.6907193721015
380,KJYR0,2182,KJYR0,York,US,NE,,KJYR,40.8964,-97.6241,509.0,America/Chicago,2006-01-01,2022-09-22,2006-01-02,2022-04-24,2010-01-01,2022-01-01,724.3627385100133
146,72747,2175,72747,Falls International Airport,US,MN,72747.0,KINL,48.5667,-93.4,361.0,America/Chicago,1973-01-01,2022-09-22,1906-07-01,2022-09-14,1906-01-01,2022-01-01,641.3965405662731
399,KMBS0,2163,KMBS0,Saginaw / Falconview Estates Mobile Home Park,US,MI,,KMBS,43.5329,-84.0796,204.0,America/Detroit,1973-01-01,2022-09-22,1973-01-01,2022-04-24,1974-01-01,2022-01-01,91.99614212162238
113,72551,2162,72551,Lincoln Municipal Airport,US,NE,72551.0,KLNK,40.8333,-96.7647,372.0,America/Chicago,1942-10-01,2022-09-22,1942-10-01,2022-09-14,1942-01-01,2022-01-01,681.254636479526
553,KYKN0,2162,KYKN0,Yankton / Yangton [Misspelling],US,SD,,KYKN,42.9167,-97.3859,398.0,America/Chicago,2006-01-01,2022-09-22,2006-01-01,2022-04-24,2009-01-01,2022-01-01,696.795256263617
378,KJYG0,2145,KJYG0,St James / Grogan,US,MN,,KJYG,43.9863,-94.5579,325.0,America/Chicago,2006-01-01,2022-09-22,2006-01-03,2022-04-24,2008-01-01,2022-01-01,559.8334142801216
43,71527,2144,71527,"Simcoe, Ontario",CA,ON,,CWSI,42.85,-80.2667,241.0,America/Toronto,,,2010-09-24,2022-09-18,2011-01-01,2022-01-01,182.76756778114824
114,72552,2140,72552,Central Nebraska Regional,US,NE,72552.0,KGRI,40.9667,-98.15,563.0,America/Chicago,1944-03-01,2022-09-22,1938-03-21,2022-09-14,1938-01-01,2022-01-01,750.3458556598413
292,KEBS0,2129,KEBS0,Webster City / Highview,US,IA,,KEBS,42.4365,-93.8691,342.0,America/Chicago,2006-01-01,2022-09-22,2006-01-01,2022-04-24,2010-01-01,2022-01-01,518.3714792699566
33,71438,2121,71438,Western Island,CA,ON,71438.0,CWMZ,45.03,-80.37,191.0,America/Nipigon,1984-06-07,2022-09-22,1984-06-10,2022-09-20,1995-01-01,2022-01-01,257.2657077435178
126,72641,2112,72641,Madison Dane County Rgnl,US,WI,72641.0,KMSN,43.1333,-89.0167,263.0,America/Chicago,1948-01-01,2022-09-22,1939-10-01,2022-09-14,1939-01-01,2022-01-01,275.6647356352511
564,NLAUF,2101,NLAUF,Thunder Bay,CA,ON,71072.0,,48.37,-89.32,199.0,America/Thunder_Bay,2020-05-08,2022-09-21,2012-02-09,2022-09-18,1954-01-01,2022-01-01,503.6851337747241
293,KEDJ0,2101,KEDJ0,Bellefontaine / McMorran,US,OH,,KEDJ,40.3723,-83.8192,342.0,America/New_York,2011-05-12,2022-09-21,2011-05-13,2022-04-24,2012-01-01,2021-01-01,127.77289409938884
379,KJYM0,2088,KJYM0,Hillsdale,US,MI,,KJYM,41.9213,-84.5858,361.0,America/Detroit,2006-01-01,2022-09-22,2006-01-01,2022-04-24,2008-01-01,2022-01-01,47.96122889486565
291,KEAU0,2084,KEAU0,Eau Claire County / Pinehurst,US,WI,,KEAU,44.8658,-91.4843,278.0,America/Chicago,1973-01-01,2022-09-22,1973-01-01,2022-04-24,1973-01-01,2022-01-01,429.0733425447458
122,72637,2080,72637,Flint Bishop International  Airport,US,MI,72637.0,KFNT,42.9667,-83.0833,238.0,America/Detroit,1973-01-01,2022-09-22,1948-05-02,2022-09-14,1948-01-01,2022-01-01,61.44879123517779
390,KLRJ0,2075,KLRJ0,Le Mars / Armel Acres Mobile Home Estates,US,IA,,KLRJ,42.7779,-96.1937,365.0,America/Chicago,2006-01-01,2022-09-22,2006-01-01,2022-04-24,2011-01-01,2022-01-01,636.3686607450504
121,72636,2070,72636,Muskegon County Airport,US,MI,72636.0,KMKG,43.1667,-86.2333,191.0,America/Detroit,1973-01-01,2022-09-22,1896-06-02,2022-09-14,1896-01-01,2022-01-01,142.42623746621422
388,KLOT0,2068,KLOT0,Joliet / Lockport / Nottingham Ridge,US,IL,,KLOT,41.6081,-88.0962,207.0,America/Chicago,2006-01-23,2022-09-22,2008-04-04,2022-04-19,2011-01-01,2021-01-01,228.2221953215894
566,QHA0T,2066,QHA0T,Marathon Airport,CA,ON,,,48.76,-86.35,315.0,America/Toronto,2020-01-01,2022-09-19,,,,,468.7568911227198
556,LII7V,2063,LII7V,Hazelwood,CA,ON,,,48.47,-89.27,322.0,America/Thunder_Bay,,,2016-01-04,2022-09-20,2016-01-01,2022-01-01,508.0979703627025
123,72638,2061,72638,Roscommon County Airport,US,MI,72638.0,KHTL,44.35,-84.6667,351.0,America/Detroit,1973-01-01,2022-09-22,1964-07-01,2022-09-14,1964-01-01,2022-01-01,154.00339312121113
29,71352,2055,71352,Elora RCS,CA,ON,71352.0,CZEL,43.65,-80.42,376.0,America/Toronto,2004-06-08,2022-09-22,1969-03-01,2022-09-18,1969-01-01,2022-01-01,195.3060757482748
127,72642,2052,72642,Acacia Falls Mobile Home Court,US,WI,72642.0,KSBM,43.78,-87.85,228.0,America/Chicago,2006-01-01,2022-09-22,2006-01-01,2022-04-25,2006-01-01,2022-01-01,234.04752296240923
389,KLPR0,2045,KLPR0,Lorain / West Ridge Green,US,OH,,KLPR,41.35,-82.1833,241.0,America/New_York,2006-01-01,2022-09-22,2006-01-01,2022-04-24,2006-01-01,2022-01-01,100.7051025446704
561,N4N88,2039,N4N88,Thornbury 3,CA,ON,,,44.55,-80.47,212.0,America/Toronto,,,2006-05-01,2022-09-17,2006-01-01,2022-01-01,230.19141118673787
125,72640,2038,72640,Gen Mitchell International Airport,US,WI,72640.0,KMKE,42.955,-87.9044,211.0,America/Chicago,1948-01-01,2022-09-22,1938-04-01,2022-09-14,1938-01-01,2022-01-01,218.022785265965
294,KEFT0,2034,KEFT0,Monroe / Swisshaven Mobile Home Park,US,WI,,KEFT,42.6149,-89.5904,331.0,America/Chicago,2006-01-01,2022-09-22,2006-01-01,2022-04-24,2006-01-01,2022-01-01,300.07546674158533
115,72554,2027,72554,Omaha / Offutt Air Force Base,US,NE,72554.0,KOFF,41.1167,-95.9,319.0,America/Chicago,1948-01-12,2022-09-22,1948-01-13,2022-04-25,1948-01-01,2020-01-01,633.0113231458769
28,71307,2025,71307,Ridgetown RCS,CA,ON,71307.0,,42.45,-81.88,206.0,America/Toronto,2004-05-10,2022-09-17,2003-02-01,2022-09-12,2003-01-01,2022-01-01,96.80958533996176
131,72646,2009,72646,Wausau / Wausau Junction,US,WI,72646.0,KAUW,44.9263,-89.627,366.0,America/Chicago,1990-03-14,2022-09-22,1941-12-01,2022-09-14,1941-01-01,2022-01-01,349.1094547194017
130,72645,2006,72645,Austin Straubel International  Airport,US,WI,72645.0,KGRB,44.4833,-88.1333,212.0,America/Chicago,1950-01-01,2022-09-22,1886-09-01,2022-09-14,1886-01-01,2022-01-01,270.49903442984964
570,V5792,2003,V5792,Mine Centre Southwest,CA,ON,,,48.76,-92.62,361.0,America/Rainy_River,,,2005-10-01,2022-09-18,2005-01-01,2022-01-01,623.370059821496
569,UV7W2,1997,UV7W2,St Labre,CA,MB,,,49.35,-96.04,352.0,America/Winnipeg,,,2000-09-01,2022-09-17,2000-01-01,2022-01-01,769.7838838813607
297,KELO0,1994,KELO0,Ely Municipal Airport / Northern Terrace Mobile Home Park,US,MN,,KELO,47.8246,-91.8307,444.0,America/Chicago,2006-01-01,2022-09-22,2006-01-01,2022-04-24,2006-01-01,2021-01-01,552.9658142114012
116,72556,1992,72556,Karl Stefan Memorial Airport,US,NE,72556.0,KOFK,41.9833,-97.4333,479.0,America/Chicago,1973-01-01,2022-09-22,1945-10-01,2022-09-14,1945-01-01,2022-01-01,702.9571322624654
384,KLJF0,1984,KLJF0,Litchfield / Evergreen Mobile Home Park,US,MN,,KLJF,45.1,-94.5,347.0,America/Chicago,2006-01-01,2022-09-22,2006-01-01,2022-04-24,2007-01-01,2022-01-01,573.8911545170909
31,71433,1982,71433,Caribou Island,CA,ON,71433.0,CWCI,47.33,-85.83,187.0,America/Nipigon,1980-03-01,2022-09-22,1980-03-11,2022-09-20,1996-01-01,2021-01-01,367.2063142359635
145,72745,1981,72745,Duluth International Airport,US,MN,72745.0,KDLH,46.8333,-92.2167,435.0,America/Chicago,1948-01-01,2022-09-22,1948-01-01,2022-09-14,1948-01-01,2022-01-01,525.2463304779079
567,SJZBK,1979,SJZBK,Holland,CA,MB,,,49.61,-98.88,375.0,America/Winnipeg,,,2000-01-01,2022-09-12,2000-01-01,2009-01-01,887.6107641117301
559,MUKMN,1977,MUKMN,Oakbank,CA,MB,,,49.93,-96.85,246.0,America/Winnipeg,,,2000-01-01,2022-09-14,2000-01-01,2022-01-01,822.598170504599
558,MEIQU,1976,MEIQU,Amherstburg,CA,ON,,,42.1,-83.09,182.0,America/Toronto,,,2000-01-01,2022-09-17,2000-01-01,2022-01-01,34.71930689503764
302,KETH0,1970,KETH0,Wheaton,US,MN,,KETH,45.7805,-96.5439,312.0,America/Chicago,2006-01-01,2022-09-22,2006-01-01,2022-04-24,2006-01-01,2022-01-01,682.5158098146619
565,O879F,1968,O879F,St Thomas Wpcp,CA,ON,,,42.77,-81.21,209.0,America/Toronto,,,2000-01-01,2022-09-16,2000-01-01,2021-01-01,134.90052720214385
129,72644,1967,72644,Rochester International Airport,US,MN,72644.0,KRST,43.9,-92.5,401.0,America/Chicago,1973-01-01,2022-09-22,1893-01-18,2022-09-14,1893-01-01,2022-01-01,457.740306104585
37,71460,1964,71460,Killarney,CA,ON,71460.0,CWBE,45.97,-81.48,196.0,America/Toronto,1985-09-10,2022-09-22,1985-09-13,2022-09-20,1996-01-01,2022-01-01,282.16637529595744
301,KETB0,1957,KETB0,West Bend / Myra,US,WI,,KETB,43.4222,-88.1279,270.0,America/Chicago,2006-01-02,2022-09-22,2006-07-02,2022-04-24,2014-01-01,2022-01-01,237.5277194665767
117,72557,1941,72557,Sioux Gateway Airport,US,IA,72557.0,KSUX,42.3833,-96.05,335.0,America/Chicago,1942-10-01,2022-09-22,1942-10-01,2022-09-14,1942-01-01,2022-01-01,629.97473760112
112,72550,1934,72550,Omaha Eppley Airfield,US,NE,72550.0,KOMA,41.3,-95.9,300.0,America/Chicago,1975-01-01,2022-09-22,1948-01-01,2022-09-14,1948-01-01,2022-01-01,630.7309786807512
34,71439,1934,71439,Cove Island,CA,ON,71439.0,CWWX,45.33,-81.73,181.0,America/Toronto,1985-09-10,2021-05-11,1985-09-12,2021-05-10,1995-01-01,2019-01-01,237.0001399252633
30,71368,1933,71368,Kitchener/waterloo,CA,ON,71368.0,CYKF,43.46,-80.38,322.0,America/Toronto,1993-05-20,2022-09-22,2002-10-03,2022-09-18,2008-01-01,2022-01-01,191.0798101158478
562,N74GR,1931,N74GR,Dryden Regional,CA,ON,71527.0,,49.83,-92.74,413.0,America/Rainy_River,2020-01-01,2022-09-21,2010-09-24,2022-09-18,2011-01-01,2022-01-01,679.6473858917955
568,UJHR7,1929,UJHR7,Kenora RCS,CA,ON,71151.0,,49.79,-94.38,413.0,America/Winnipeg,2020-01-01,2022-09-21,2008-07-21,2022-09-18,2008-01-01,2022-01-01,730.1278364022556
41,71465,1927,71465,Erieau,CA,ON,71465.0,CWAJ,42.25,-81.9,178.0,America/Toronto,1986-01-17,2022-09-22,1986-01-29,2022-09-20,1995-01-01,2021-01-01,94.6773342309475
36,71449,1925,71449,Sprague,CA,MB,71449.0,CWSU,49.02,-95.6,329.0,America/Winnipeg,2001-09-16,2022-09-21,1992-12-01,2022-09-18,1993-01-01,2022-01-01,740.3779605331467
563,NCUQS,1912,NCUQS,Portage Romance,CA,MB,,,49.98,-98.3,262.0,America/Winnipeg,,,2007-01-01,2022-09-17,2007-01-01,2022-01-01,878.3357356358517
295,KEGV0,1906,KEGV0,Eagle River,US,WI,,KEGV,45.9323,-89.2683,501.0,America/Chicago,2006-01-01,2022-09-22,2006-01-01,2022-04-24,2006-01-01,2022-01-01,375.5230633520147
393,KLWA0,1901,KLWA0,South Haven / Mitchell Brothers Mobile Home Park,US,MI,,KLWA,42.3512,-86.2556,203.0,America/Detroit,2006-01-01,2022-09-22,2006-01-01,2022-04-24,2006-01-01,2022-01-01,128.93427069146344
571,VMWBN,1887,VMWBN,Indian Bay,CA,MB,,,49.62,-95.2,327.0,America/Winnipeg,,,2000-01-01,2022-09-17,2000-01-01,2022-01-01,750.6814058353239
381,KLAF0,1882,KLAF0,Lafayette / Summit,US,IN,,KLAF,40.4123,-86.9369,185.0,America/Indiana/Indianapolis,1973-01-01,2022-09-22,1973-01-01,2022-04-24,1979-01-01,2022-01-01,207.7757837379201
124,72639,1876,72639,Alpena County Regional Airport,US,MI,72639.0,KAPN,45.0833,-83.5667,210.0,America/Detroit,1973-01-01,2022-09-22,1916-10-21,2022-09-14,1916-01-01,2022-01-01,197.6720355795964
385,KLNL0,1874,KLNL0,Land O Lakes / Land O' Lakes,US,WI,,KLNL,46.154,-89.2121,520.0,America/Chicago,2006-01-01,2022-09-22,2006-01-04,2022-04-24,2009-01-01,2022-01-01,383.7698402883548
300,KEST0,1857,KEST0,Estherville / Gruver,US,IA,,KEST,43.4074,-94.7464,402.0,America/Chicago,2006-01-01,2022-09-22,2006-01-01,2022-04-24,2006-01-01,2022-01-01,564.5653526038196
299,KEOK0,1849,KEOK0,Keokuk / Skyview Mobile Home Park,US,IA,,KEOK,40.4599,-91.4285,205.0,America/Chicago,2006-01-01,2022-09-22,2006-01-01,2022-04-24,2016-01-01,2022-01-01,417.5144154104136
298,KENW0,1842,KENW0,Kenosha / Pleasant Prairie Mobile Home Court,US,WI,,KENW,42.5957,-87.9278,226.0,America/Chicago,2006-01-01,2022-09-22,2006-01-01,2022-04-24,2006-01-01,2022-01-01,215.43718747693825
38,71461,1838,71461,Trowbridge Island,CA,AB,,CPEL,48.3,-88.8667,218.0,America/Thunder_Bay,1984-09-21,2022-08-24,1984-09-23,2022-09-18,2008-01-01,2022-01-01,488.0924151435063
377,KJXN0,1832,KJXN0,Jackson / Coffman Trailer Court,US,MI,,KJXN,42.2604,-84.4604,305.0,America/Detroit,1973-01-01,2022-09-22,1973-01-03,2022-04-24,2000-01-01,2022-01-01,36.74975259240599
309,KFEP0,1824,KFEP0,Freeport / South Freeport,US,IL,,KFEP,42.2462,-89.582,262.0,America/Chicago,2006-01-02,2022-09-22,2006-06-01,2022-04-24,2015-01-01,2022-01-01,299.30376970586
132,72648,1808,72648,Escanaba,US,MI,72648.0,KESC,45.75,-87.0333,180.0,America/Detroit,2006-01-01,2022-09-22,1948-01-01,2022-04-25,1948-01-01,2022-01-01,293.463962833756
303,KEVM0,1792,KEVM0,Eveleth / Genoa,US,MN,,KEVM,47.4251,-92.4981,420.0,America/Chicago,2006-01-01,2022-09-22,2006-01-01,2022-04-24,2009-01-01,2022-01-01,559.7835705190456
306,KFBL0,1778,KFBL0,Faribault,US,MN,,KFBL,44.3275,-93.3107,323.0,America/Chicago,2006-01-01,2022-09-22,2006-01-01,2022-04-24,2007-01-01,2022-01-01,503.5191324861291
367,KIOW0,1765,KIOW0,Iowa City / Baculis Mobile Home Park,US,IA,,KIOW,41.6398,-91.5481,204.0,America/Chicago,1997-01-23,2022-09-22,1997-02-13,2022-04-24,2005-01-01,2021-01-01,403.97761853607
103,72540,1764,72540,Spickard,US,MI,72540.0,KP35,40.25,-93.7167,271.0,America/Chicago,,,1957-03-17,2022-09-14,1957-01-01,2022-01-01,536.6036330660049
42,71468,1761,71468,Little Flatland Island,CA,ON,71468.0,CWKK,49.69,-88.31,261.0,America/Nipigon,1992-10-08,2022-09-22,1992-11-03,2022-09-18,2006-01-01,2021-01-01,560.3591075771401
46,71560,1757,71560,Emerson,CA,MB,71560.0,,49.0,-97.24,242.0,America/Chicago,2001-09-16,2022-09-21,2009-07-23,2022-09-18,2009-01-01,2022-01-01,802.3553751673983
104,72542,1756,72542,Burlington / Congers Mobile Home Park,US,IA,72542.0,KBRL,40.7832,-91.1255,213.0,America/Chicago,2005-01-01,2022-09-22,1897-07-14,2022-09-14,1897-01-01,2022-01-01,395.40473290533777
305,KEZS0,1746,KEZS0,Shawano,US,WI,,KEZS,44.7873,-88.56,248.0,America/Chicago,2009-02-01,2022-09-22,2009-03-12,2022-04-24,2012-01-01,2022-01-01,299.6899843814555
304,KEVU0,1735,KEVU0,Maryville,US,MO,,KEVU,40.3533,-94.9166,349.0,America/Chicago,2017-01-05,2022-09-22,2017-01-09,2022-04-24,2020-01-01,2022-01-01,595.127561709604
120,72635,1726,72635,Gerald R. Ford International,US,MI,72635.0,KGRR,42.8833,-85.5167,242.0,America/Detroit,1973-01-01,2022-09-22,1963-11-24,2022-09-14,1963-01-01,2022-01-01,101.22222063720986
366,KIMT0,1721,KIMT0,Iron Mountain,US,MI,,KIMT,45.8184,-88.1146,360.0,America/Menominee,2006-01-01,2022-09-22,2006-01-01,2022-04-24,2006-01-01,2022-01-01,330.0429528848237
572,XM44W,1715,XM44W,Marathon Airport,CA,ON,,,48.76,-86.35,315.0,America/Toronto,2020-01-01,2022-09-21,2018-10-29,2022-09-18,2018-01-01,2022-01-01,468.7568911227198
383,KLDM0,1702,KLDM0,Ludington / Hidden Forest Mobile Home Park,US,MI,,KLDM,43.9625,-86.4079,197.0,America/Detroit,2005-01-01,2022-09-22,2005-01-01,2022-04-24,2006-01-01,2022-01-01,180.4255687547471
307,KFCM0,1698,KFCM0,Minneapolis / Eden Prairie,US,MN,,KFCM,44.8275,-93.4586,276.0,America/Chicago,2006-01-01,2022-09-22,2006-01-02,2022-04-24,2006-01-01,2022-01-01,519.587111338442
357,KI750,1693,KI750,Osceola,US,IA,,KI75,41.0522,-93.6897,340.0,America/Chicago,2010-03-04,2022-09-22,2010-03-04,2022-04-24,2011-01-01,2022-01-01,520.817426569003
105,72543,1691,72543,Greater Rockford Airport,US,IL,72543.0,KRFD,42.2,-89.1,224.0,America/Chicago,1973-01-01,2022-09-22,1951-01-01,2022-09-14,1951-01-01,2022-01-01,274.6950343634056
376,KJVL0,1686,KJVL0,Janesville / Afton,US,WI,,KJVL,42.6202,-89.0416,246.0,America/Chicago,2006-01-01,2022-09-22,2020-01-14,2022-04-24,2020-01-01,2022-01-01,272.1751936364928
97,72534,1673,72534,Chicago Midway Airport,US,IL,72534.0,KMDW,41.7833,-87.75,189.0,America/Chicago,1973-01-01,2022-09-22,1928-02-29,2022-09-13,1928-01-01,2022-01-01,208.3421542269787
96,72533,1672,72533,Fort Wayne International,US,IN,72533.0,KFWA,41.0,-85.0333,248.0,America/Indiana/Indianapolis,1941-11-01,2022-09-22,1939-08-01,2022-09-14,1939-01-01,2022-01-01,107.5698973681924
118,72628,1669,72628,K. I. Sawyer Air Force Base,US,MI,72628.0,KSAW,46.34,-87.38,372.0,America/Detroit,2006-01-01,2022-09-22,2006-01-04,2022-04-25,2020-01-01,2022-01-01,336.51496523759056
95,72532,1663,72532,Greater Peoria Regional Airport,US,IL,72532.0,KPIA,40.6667,-89.6839,201.0,America/Chicago,1973-01-01,2022-09-22,1943-05-04,2022-09-14,1943-01-01,2022-01-01,326.434921900874
60,71667,1639,71667,Thunder Bay CS,CA,ON,71667.0,CZTB,48.37,-89.33,199.0,America/Thunder_Bay,2005-01-01,2022-09-22,2003-10-01,2022-09-15,2003-01-01,2022-01-01,503.9469732904038
361,KIGQ0,1632,KIGQ0,Chicago / Lynwood,US,IL,,KIGQ,41.5349,-87.5295,189.0,America/Chicago,2006-01-02,2022-09-22,2011-03-17,2022-04-24,2014-01-01,2022-01-01,200.84353000868003
382,KLCG0,1619,KLCG0,Wayne,US,NE,,KLCG,42.2416,-96.9823,436.0,America/Chicago,2006-01-01,2022-09-22,2006-01-04,2022-04-19,2009-01-01,2022-01-01,678.2727876708343
308,KFDY0,1617,KFDY0,Findlay / West Park,US,OH,,KFDY,41.012,-83.6686,248.0,America/New_York,1973-01-01,2022-09-22,1973-01-01,2022-04-24,2000-01-01,2022-01-01,83.66996925652992
111,72549,1615,72549,Fort Dodge,US,IA,72549.0,KFOD,42.55,-94.1833,354.0,America/Chicago,2006-01-01,2022-09-22,2006-01-01,2022-04-25,2006-01-01,2022-01-01,534.2184160940607
45,71559,1592,71559,Terrace Bay,CA,ON,,CYTJ,48.8167,-87.1,290.0,America/Nipigon,1982-08-06,2022-08-24,2011-11-28,2022-09-18,2011-01-01,2022-01-01,483.4785124272933
48,71573,1590,71573,Delhi CS,CA,ON,71573.0,CXDI,42.87,-80.55,232.0,America/Toronto,2001-09-16,2022-09-22,1997-06-02,2022-09-18,1997-01-01,2022-01-01,169.08914727233378
375,KJMS0,1589,KJMS0,Jamestown,US,ND,,KJMS,46.9297,-98.6782,457.0,America/Chicago,1973-01-01,2022-09-22,1973-01-01,2022-04-24,2000-01-01,2022-01-01,803.7566281212584
107,72545,1586,72545,Cedar Rapids / Konigsmark,US,IA,72545.0,KCID,41.8851,-91.7123,265.0,America/Chicago,1973-01-01,2022-09-22,1953-06-01,2022-09-14,1953-01-01,2022-01-01,410.300056120137
98,72535,1579,72535,South Bend Regional Airport,US,IN,72535.0,KSBN,41.7,-86.3167,244.0,America/Indiana/Indianapolis,1973-01-01,2022-09-22,1893-12-01,2022-09-14,1893-01-01,2022-01-01,137.26715696675956
108,72546,1578,72546,Des Moines International,US,IA,72546.0,KDSM,41.5333,-93.6531,292.0,America/Chicago,1973-01-01,2022-09-22,1945-07-01,2022-09-14,1945-01-01,2022-01-01,512.9394078805907
58,71655,1572,71655,Rawson Lake / Hawk Lake,CA,ON,,CTRA,49.6642,-93.7328,435.0,America/Rainy_River,2009-09-23,2022-09-22,2009-09-24,2022-04-26,2009-01-01,2021-01-01,702.857994558957
106,72544,1572,72544,Moline Quad-City Airport,US,IL,72544.0,KMLI,41.45,-90.0167,180.0,America/Chicago,1973-01-01,2022-09-22,1943-05-24,2022-09-14,1943-01-01,2022-01-01,327.9560976330165
356,KI740,1569,KI740,Urbana / McKeever Mobile Home Park,US,OH,,KI74,40.1326,-83.7535,326.0,America/New_York,2020-01-14,2022-09-22,2020-01-14,2022-04-24,2020-01-01,2022-01-01,144.25459017484738
374,KJMR0,1563,KJMR0,Mora,US,MN,,KJMR,45.8861,-93.2718,308.0,America/Chicago,2006-01-01,2022-09-22,2006-01-01,2022-04-24,2006-01-01,2022-01-01,537.0372891753193
110,72548,1559,72548,Waterloo Municipal Airport,US,IA,72548.0,KALO,42.55,-92.0667,266.0,America/Chicago,1960-03-01,2022-09-22,1950-03-01,2022-09-14,1950-01-01,2022-01-01,426.2029378862108
310,KFET0,1555,KFET0,Fremont / Midway Trailer Court,US,NE,,KFET,41.4491,-96.5202,367.0,America/Chicago,2006-01-01,2022-09-22,2006-01-02,2022-04-24,2010-01-01,2022-01-01,660.8712686729051
44,71538,1551,71538,Windsor Airport,CA,ON,71538.0,CYQG,42.28,-82.96,190.0,America/Toronto,1955-07-02,2022-09-22,1940-08-01,2022-09-20,1940-01-01,2022-01-01,40.47539468591726
312,KFFM0,1543,KFFM0,Fergus Falls / French,US,MN,,KFFM,46.2844,-96.1567,361.0,America/Chicago,2005-01-01,2022-09-22,2005-01-01,2022-04-24,2008-01-01,2022-01-01,675.7460382050464
313,KFFX0,1543,KFFX0,Fremont Muni / Reeman,US,MI,,KFFX,43.4393,-85.9949,235.0,America/Detroit,2008-02-29,2022-09-22,2008-03-02,2022-04-24,2008-01-01,2022-01-01,141.79492801947455
362,KIIB0,1533,KIIB0,Independence / Pine Ridge Mobile Home Court,US,IA,,KIIB,42.4569,-91.9477,298.0,America/Chicago,2006-01-01,2022-09-22,2006-01-01,2022-04-24,2014-01-01,2022-01-01,420.1444512110618
347,KHIB0,1520,KHIB0,Hibbing-Chisholm / Wilpen,US,MN,,KHIB,47.3866,-92.839,413.0,America/Chicago,1973-01-01,2022-09-22,1973-01-01,2022-04-24,1973-01-01,2022-01-01,571.1546165880914
316,KFKR0,1516,KFKR0,Frankfort / Jefferson,US,IN,,KFKR,40.2734,-86.5622,262.0,America/Indiana/Indianapolis,2020-01-14,2022-09-22,2020-01-14,2022-04-24,2020-01-01,2022-01-01,199.0269478947299
119,72634,1510,72634,"Gaylord, Mi.",US,MI,72634.0,KAPX,44.9167,-84.7167,446.0,America/Detroit,1973-01-01,2001-05-02,1998-08-01,2022-09-14,1998-01-01,2022-01-01,192.24255959648076
359,KICR0,1478,KICR0,Winner,US,SD,,KICR,43.3903,-99.8422,620.0,America/Chicago,2006-01-01,2022-09-22,2006-01-04,2022-04-24,2007-01-01,2022-01-01,820.789163618914
311,KFFL0,1478,KFFL0,Fairfield / Maharishi Vedic City,US,IA,,KFFL,41.0558,-91.9809,244.0,America/Chicago,2006-01-01,2022-09-22,2006-01-01,2022-04-24,2015-01-01,2022-01-01,433.70633751282895
94,72531,1477,72531,"Rantoul / Chanute Air Force Base, Il.",US,IL,72531.0,KTIP,40.3,-88.15,0.0,America/Chicago,2006-02-03,2022-09-22,2011-03-18,2022-04-25,2015-01-01,2022-01-01,264.9194168211385
360,KIFA0,1476,KIFA0,Iowa Falls / Racine,US,IA,,KIFA,42.4708,-93.27,347.0,America/Chicago,2007-10-16,2022-09-22,2007-10-19,2022-04-24,2014-01-01,2022-01-01,487.6977793605343
315,KFKA0,1465,KFKA0,Preston / Carimona,US,MN,,KFKA,43.6767,-92.1797,389.0,America/Chicago,2006-01-01,2022-09-22,2006-01-01,2022-04-24,2007-01-01,2022-01-01,439.0794342668338
57,71642,1448,71642,Chapleau Airport,CA,ON,71642.0,CYLD,47.82,-83.35,448.0,America/Toronto,1996-11-01,2022-09-22,1978-07-01,2022-04-23,1978-01-01,2018-01-01,386.980948864923
318,KFNB0,1446,KFNB0,Falls City,US,NE,,KFNB,40.0788,-95.592,300.0,America/Chicago,2000-01-01,2022-09-22,2000-08-31,2022-04-24,2001-01-01,2021-01-01,634.7945544493324
322,KFSE0,1446,KFSE0,Fosston,US,MN,,KFSE,47.5928,-95.7735,390.0,America/Chicago,2006-01-01,2022-09-14,2006-01-01,2022-04-24,2007-01-01,2022-01-01,695.8496260292759
109,72547,1440,72547,Dubuque Regional Airport,US,IL,72547.0,KDBQ,42.4,-90.0333,328.0,America/Chicago,1973-01-01,2022-09-22,1951-02-01,2022-09-14,1951-01-01,2022-01-01,322.2719736584899
47,71564,1429,71564,Morden CDA CS,CA,MB,71564.0,CXMD,49.19,-98.08,298.0,America/Winnipeg,2001-09-16,2022-09-22,1999-12-01,2022-09-18,1999-01-01,2022-01-01,841.9297784428189
368,KIRK0,1417,KIRK0,Kirksville / Millard,US,MO,,KIRK,40.0935,-92.5449,294.0,America/Chicago,1973-01-01,2022-09-22,1973-01-01,2022-04-24,2004-01-01,2022-01-01,481.6028075126823
355,KHZY0,1406,KHZY0,Ashtabula / Bulah,US,OH,,KHZY,41.778,-80.6955,282.0,America/New_York,2006-01-01,2022-09-22,2006-01-01,2022-04-24,2006-01-01,2021-01-01,159.98720752408235
336,KGSH0,1405,KGSH0,Goshen / Bainter Town,US,IN,,KGSH,41.5263,-85.7942,252.0,America/Indiana/Indianapolis,1999-01-14,2022-09-22,1999-01-23,2022-04-24,2005-01-01,2021-01-01,116.09204891166372
49,71579,1402,71579,Winnipeg The Forks,CA,MB,71579.0,CXWN,49.89,-97.13,230.0,America/Winnipeg,2001-09-16,2022-09-22,1999-11-01,2022-09-18,1999-01-01,2022-01-01,831.2682511583678
99,72536,1391,72536,Toledo Express Airport,US,OH,72536.0,KTOL,41.5833,-83.8,208.0,America/New_York,1973-01-01,2022-09-22,1955-01-01,2022-09-14,1955-01-01,2022-01-01,44.23890161895907
51,71623,1386,71623,London International Airport,CA,ON,71623.0,CYXU,43.03,-81.15,278.0,America/Toronto,1955-07-02,2022-09-22,1982-01-03,2022-09-18,2000-01-01,2022-01-01,143.54523337075454
317,KFLD0,1383,KFLD0,Fond Du Lac / Fond Du Lac,US,WI,,KFLD,43.7712,-88.4884,246.0,America/Chicago,1999-01-01,2022-09-22,1999-01-01,2022-04-24,2005-01-01,2022-01-01,262.95479142269835
314,KFGN0,1381,KFGN0,Flag Island / Penasse,US,MN,,KFGN,49.3183,-94.9028,329.0,America/Winnipeg,2006-01-01,2022-06-06,2006-01-01,2022-04-24,2011-01-01,2022-01-01,727.2488246123787
92,72526,1360,72526,Erie International Airport,US,PA,72526.0,KERI,42.0833,-80.1833,223.0,America/New_York,1973-01-01,2022-09-22,1926-01-01,2022-09-14,1926-01-01,2022-01-01,183.19113309129347
354,KHZX0,1358,KHZX0,McGregor,US,MN,,KHZX,46.6188,-93.3098,374.0,America/Chicago,2006-01-01,2022-09-22,2006-01-01,2022-04-24,2007-01-01,2022-01-01,561.632255599902
370,KISQ0,1336,KISQ0,Manistique,US,MI,,KISQ,45.9746,-86.1718,209.0,America/Detroit,2006-01-01,2022-09-22,2006-01-01,2022-04-24,2006-01-01,2022-01-01,285.73390093925786
55,71634,1335,71634,Sarnia Airport,CA,NB,,CYZR,43.0,-82.3167,181.0,America/Toronto,2004-03-21,2022-09-22,2006-01-04,2022-09-18,2007-01-01,2022-01-01,90.46307405870223
101,72538,1331,72538,Copper Harbor,US,MI,72538.0,KP59,47.4667,-87.8833,191.0,America/Detroit,2006-01-01,2022-09-22,2004-11-11,2022-09-14,2004-01-01,2022-01-01,415.0923670561481
53,71632,1327,71632,"Britt, Ontario",CA,ON,,CWBI,45.8,-80.5333,190.0,America/Nipigon,2017-02-28,2017-03-15,1977-07-01,2022-09-18,1981-01-01,2022-01-01,294.23847998671044
100,72537,1327,72537,Detroit Metropolitan,US,MI,72537.0,KDTW,42.2333,-83.0,195.0,America/Detroit,1942-08-01,2022-09-22,1942-08-01,2022-09-14,1942-01-01,2022-01-01,38.25335748707118
50,71582,1325,71582,Dryden,CA,ON,,CYHD,49.8317,-92.7333,413.0,America/Winnipeg,1962-01-01,2022-09-22,1977-07-01,2022-09-18,2006-01-01,2022-01-01,679.5301566230653
91,72525,1324,72525,Youngstown-Warren Reg Airprt,US,OH,72525.0,KYNG,41.25,-80.6667,365.0,America/New_York,1948-01-01,2022-09-22,1934-08-01,2022-09-14,1934-01-01,2022-01-01,172.72974566141107
86,72428,1324,72428,Port Columbus International  Airport,US,OH,72428.0,KCMH,40.0,-82.05,248.0,America/New_York,1945-04-01,2022-09-22,1945-04-01,2022-09-14,1945-01-01,2022-01-01,177.08831415771667
363,KIKK0,1321,KIKK0,Kankakee / Aroma Park,US,IL,,KIKK,41.0714,-87.8463,192.0,America/Chicago,2006-01-22,2022-09-22,2006-04-01,2022-04-24,2011-01-01,2022-01-01,226.63092833313996
344,KHCO0,1317,KHCO0,Hallock / Viking Land Terrace,US,MN,,KHCO,48.7527,-96.943,250.0,America/Chicago,2006-01-01,2022-09-22,2006-01-01,2022-04-24,2006-01-01,2022-01-01,782.0269663328795
52,71631,1317,71631,Mount Forest,CA,ON,71631.0,CWLS,43.98,-80.75,414.0,America/Toronto,1962-01-01,2022-09-22,1977-07-04,2022-09-20,1995-01-01,2022-01-01,194.068589173872
332,KGLR0,1317,KGLR0,Gaylord / Nottingham Forest Mobile Home Park,US,MI,,KGLR,45.0136,-84.7036,405.0,America/Detroit,2006-01-01,2022-09-22,2006-01-01,2022-04-24,2006-01-01,2022-01-01,198.55277627689645
89,72521,1293,72521,Akron-Canton Regional Airport,US,OH,72521.0,KCAK,40.9167,-81.45,374.0,America/New_York,1973-01-01,2022-09-22,1948-07-01,2022-09-14,1948-01-01,2022-01-01,149.26079234411594
65,71739,1282,71739,Timmins Airport,CA,ON,71739.0,CYTS,48.57,-81.38,295.0,America/Toronto,1955-07-02,2022-09-22,1955-04-01,2022-09-19,1955-01-01,2022-01-01,453.1140187677672
90,72524,1277,72524,Cleveland-Hopkins International,US,OH,72524.0,KCLE,41.4,-81.85,241.0,America/New_York,1973-01-01,2022-09-22,1938-05-01,2022-09-14,1938-01-01,2022-01-01,113.15819407798126
54,71633,1274,71633,Wiarton Airport,CA,ON,71633.0,CYVV,44.74,-81.11,222.0,America/Toronto,1950-01-01,2022-09-22,1947-07-04,2022-09-19,1947-01-01,2022-01-01,218.48443857011333
93,72530,1260,72530,Chicago Ohare Airport,US,IL,72530.0,KORD,41.9833,-87.9167,204.0,America/Chicago,1946-10-01,2022-09-22,1946-10-09,2022-09-14,1946-01-01,2022-01-01,215.00120045122688
358,KICL0,1254,KICL0,Clarinda,US,IA,,KICL,40.7222,-95.0266,303.0,America/Chicago,2006-01-01,2022-09-22,2006-01-01,2022-04-24,2015-01-01,2022-01-01,594.153978176157
319,KFOZ0,1247,KFOZ0,Bigfork,US,MN,,KFOZ,47.7828,-93.6502,412.0,America/Chicago,2006-01-01,2022-09-22,2006-01-01,2022-04-24,2007-01-01,2022-01-01,617.9134798720664
88,72520,1246,72520,Greater Pittsburgh International,US,PA,72520.0,KPIT,40.4833,-80.0667,367.0,America/New_York,1945-02-01,2022-09-22,1945-02-01,2022-09-14,1945-01-01,2022-01-01,225.8191735795129
320,KFPK0,1230,KFPK0,Charlotte / Meadows Mobile Home Park,US,MI,,KFPK,42.5745,-84.8114,272.0,America/Detroit,2006-01-01,2022-09-22,2006-01-01,2022-04-24,2006-01-01,2022-01-01,59.678156335490975
335,KGPZ0,1228,KGPZ0,Grand Rapids / Country Acres Mobile Home Park,US,MN,,KGPZ,47.2093,-93.5099,413.0,America/Chicago,2006-01-01,2022-09-22,2006-01-01,2022-04-24,2006-01-01,2022-01-01,590.5973201292599
365,KIKW0,1225,KIKW0,Midland / Alpine Mobile Home Village,US,MI,,KIKW,43.6629,-84.2613,194.0,America/Detroit,2009-04-06,2022-09-22,2009-04-07,2022-04-24,2009-01-01,2022-01-01,102.77761082897744
321,KFRM0,1221,KFRM0,Fairmont / Fairmont Estates,US,MN,,KFRM,43.6439,-94.4156,354.0,America/Chicago,2006-01-01,2022-09-22,2006-01-01,2022-04-24,2006-01-01,2022-01-01,549.611531330904
350,KHPT0,1217,KHPT0,Hampton,US,IA,,KHPT,42.7237,-93.2263,358.0,America/Chicago,2020-01-14,2022-09-22,2020-01-14,2022-04-24,2020-01-01,2021-01-01,485.4168257095812
59,71660,1206,71660,Timmins / Strickland,CA,ON,,CXTI,49.2815,-81.7941,244.0,America/Nipigon,2014-04-04,2022-08-25,2017-03-10,2022-04-15,2017-01-01,2021-01-01,496.4815795992823
87,72516,1198,72516,Bennington / Napoleon,US,VT,72516.0,K5B5,46.4944,-99.7601,604.0,America/New_York,,,2006-06-03,2022-09-14,2006-01-01,2021-01-01,844.4960257193547
56,71637,1187,71637,Dryden,CA,ON,,CXDR,49.8583,-92.7971,410.0,America/Rainy_River,2014-04-04,2022-08-25,,,,,682.8168388331228
349,KHNR0,1181,KHNR0,Harlan / Corley,US,IA,,KHNR,41.5844,-95.3397,375.0,America/Chicago,2006-01-01,2022-09-22,2006-01-01,2022-04-24,2012-01-01,2022-01-01,598.9332217273785
327,KGFK0,1168,KGFK0,Grand Forks / Powell,US,ND,,KGFK,47.9473,-97.1738,257.0,America/Chicago,2010-08-01,2022-09-22,2010-08-01,2022-04-24,2010-01-01,2022-01-01,765.0853293979702
328,KGGI0,1164,KGGI0,Grinnel / Westfield,US,IA,,KGGI,41.7099,-92.736,307.0,America/Chicago,2006-08-31,2022-09-22,2006-09-03,2022-04-24,2011-01-01,2022-01-01,464.2132226404414
373,KJKJ0,1161,KJKJ0,Moorhead / Park Lane Mobile Home Park,US,MN,,KJKJ,46.8393,-96.664,280.0,America/Chicago,2006-01-01,2022-09-22,2006-01-01,2022-04-24,2006-01-01,2022-01-01,712.0405789291231
372,KIWD0,1148,KIWD0,Ironwood / Hautala Corner,US,MI,,KIWD,46.5275,-90.1314,375.0,America/Menominee,2006-01-01,2022-09-22,2006-01-01,2022-04-24,2008-01-01,2022-01-01,433.716307628978
369,KIRS0,1147,KIRS0,Sturgis,US,MI,,KIRS,41.8133,-85.4389,282.0,America/Detroit,2006-01-01,2022-09-22,2006-01-01,2022-04-24,2006-01-01,2022-01-01,91.61881348512748
330,KGHW0,1143,KGHW0,Glenwood / Pine Hill Park,US,MN,,KGHW,45.6439,-95.3204,425.0,America/Chicago,2006-01-01,2022-09-22,2006-01-01,2022-04-15,2006-01-01,2022-01-01,623.19698810089
85,72420,1131,72420,Mansfield / Amoy,US,OH,72420.0,KMFD,40.8214,-82.5166,395.0,America/New_York,2005-01-01,2022-09-22,1948-08-01,2022-09-14,1948-01-01,2022-01-01,115.83764509428116
66,71747,1117,71747,Atikokan,CA,ON,71747.0,CYIB,48.76,-91.63,389.0,America/Atikokan,2020-01-01,2022-09-20,2000-12-13,2022-09-18,2001-01-01,2022-01-01,591.3482699582223
61,71704,1094,71704,Sarnia,CA,ON,71704.0,,43.0,-82.31,181.0,America/Toronto,2020-01-01,2022-09-21,2009-12-17,2022-09-18,2010-01-01,2022-01-01,90.73837443356858
351,KHSI0,1086,KHSI0,Hastings / Ingleside,US,NE,,KHSI,40.6052,-98.4279,598.0,America/Chicago,2006-01-01,2022-09-22,2006-01-01,2022-04-24,2006-01-01,2021-01-01,769.8916229613512
326,KGDB0,1081,KGDB0,Granite Falls / Lorne,US,MN,,KGDB,44.7533,-95.556,319.0,America/Chicago,2006-01-01,2022-09-22,2006-01-04,2022-04-24,2006-01-01,2022-01-01,618.1578322651296
64,71738,1076,71738,Wawa Airport,CA,ON,71738.0,CYXZ,47.97,-84.79,288.0,America/Nipigon,1977-07-01,2022-09-22,1977-01-01,2022-04-25,1977-01-01,2018-01-01,400.1235887662229
331,KGKJ0,1076,KGKJ0,Meadville / Onspaugh Corners,US,PA,,KGKJ,41.6265,-80.2147,426.0,America/New_York,2006-01-01,2022-09-22,2006-01-01,2022-04-24,2006-01-01,2022-01-01,186.5716260086677
364,KIKV0,1069,KIKV0,Ankeny / Oakwood Heights Mobile Home Park,US,IA,,KIKV,41.6911,-93.5665,277.0,America/Chicago,2006-01-01,2022-09-22,2006-01-01,2022-04-24,2011-01-01,2022-01-01,506.9777061692236
337,KGUS0,1067,KGUS0,Bunker Hill / Grissom Air Force Base,US,IN,,KGUS,40.6481,-86.1521,248.0,America/Indiana/Indianapolis,2006-01-01,2022-09-22,2008-01-09,2022-04-24,2008-01-01,2021-01-01,165.61314094379543
70,71751,1054,71751,Welcome Island,CA,ON,71751.0,CWEC,48.37,-89.12,211.0,America/Thunder_Bay,1996-11-01,2022-09-20,1967-05-01,2022-09-18,1967-01-01,2022-01-01,498.5189132930086
63,71733,1053,71733,"Gore Bay, Ontario",CA,ON,,CYZE,45.8833,-82.5667,193.0,America/Nipigon,1955-07-02,2022-09-22,1977-07-01,2022-09-18,1977-01-01,2022-01-01,259.43595000674213
371,KISW0,1042,KISW0,Wisconsin Rapids / Port Edwards,US,WI,,KISW,44.3603,-89.839,311.0,America/Chicago,2006-01-01,2022-09-22,2006-01-01,2022-04-24,2006-01-01,2022-01-01,340.7391577390408
340,KGYL0,1040,KGYL0,Glencoe / Plato,US,MN,,KGYL,44.756,-94.0812,303.0,America/Chicago,2006-01-01,2022-09-22,2006-01-02,2022-04-24,2006-01-01,2022-01-01,547.6757786138156
82,72014,1035,72014,Sparland,US,IL,72014.0,KC75,41.02,-89.38,173.0,America/Chicago,2006-02-22,2022-09-22,2011-03-16,2022-04-25,2017-01-01,2022-01-01,303.2921070549521
102,72539,1033,72539,Capital City Airport,US,MI,72539.0,KLAN,42.7833,-84.5833,262.0,America/Detroit,1973-01-01,2022-09-22,1948-01-01,2022-09-14,1948-01-01,2022-01-01,57.67245151947908
353,KHYX0,1027,KHYX0,Saginaw / Robin Glen Mobile Home Community,US,MI,,KHYX,43.4334,-83.8623,183.0,America/Detroit,2006-01-01,2022-09-22,2006-01-01,2022-04-24,2006-01-01,2022-01-01,83.76128516786304
348,KHJH0,1018,KHJH0,Hebron,US,NE,,KHJH,40.1523,-97.587,448.0,America/Chicago,2006-01-01,2022-09-22,2006-01-02,2022-04-24,2008-01-01,2022-01-01,734.6979730564813
324,KFXY0,1018,KFXY0,Forest City,US,IA,,KFXY,43.2348,-93.6241,375.0,America/Chicago,2009-07-14,2022-09-22,2009-07-16,2022-04-24,2015-01-01,2022-01-01,507.2317124980732
323,KFSW0,1017,KFSW0,Fort Madison / Summit (Historical),US,IA,,KFSW,40.6593,-91.3268,220.0,America/Chicago,2006-01-03,2022-09-22,2006-01-05,2022-04-24,2014-01-01,2021-01-01,408.0457676874495
67,71748,1015,71748,Atikokan,CA,MB,,CWCH,48.75,-91.6167,424.0,America/Atikokan,2001-09-16,2022-08-25,2005-01-01,2022-09-18,2006-01-01,2022-01-01,590.4285681515731
345,KHDE0,1015,KHDE0,Holdrege / Dewaynes Trailer Court,US,NE,,KHDE,40.4521,-99.3365,705.0,America/Chicago,2006-01-01,2022-09-22,2006-01-01,2022-04-24,2007-01-01,2022-01-01,818.8745599986039
62,71730,998,71730,Sudbury Airport,CA,ON,71730.0,CYSB,46.63,-80.8,348.0,America/Toronto,1955-07-02,2022-09-22,1954-02-09,2022-09-19,1954-01-01,2022-01-01,337.3305068646622
341,KGYY0,992,KGYY0,Gary / Clarke Junction,US,IN,,KGYY,41.6163,-87.4128,180.0,America/Chicago,2006-01-01,2022-09-22,2020-01-14,2022-04-24,2020-01-01,2022-01-01,193.59383415480508
78,71851,986,71851,Portage Southport,CA,MB,71851.0,CYPG,49.9,-98.28,273.0,America/Winnipeg,1955-07-02,2022-09-21,1941-07-01,2022-09-17,1941-01-01,2022-01-01,874.6572491372044
352,KHYR0,985,KHYR0,Hayward,US,WI,,KHYR,46.0253,-91.4442,371.0,America/Chicago,2006-01-01,2022-09-22,2006-01-01,2022-04-24,2006-01-01,2021-01-01,463.9000965001974
83,72019,982,72019,Munsing Lakeshore,US,MI,72019.0,KP53,46.4167,-86.65,187.0,America/Detroit,2006-01-01,2022-09-22,2006-01-01,2022-04-24,2006-01-01,2022-01-01,323.3151623505829
329,KGGP0,979,KGGP0,Logansport,US,IN,,KGGP,40.7113,-86.3727,225.0,America/Indiana/Indianapolis,2011-10-28,2022-09-22,2011-10-29,2022-04-24,2012-01-01,2022-01-01,171.68247362934994
334,KGOV0,975,KGOV0,Grayling,US,MI,,KGOV,44.6803,-84.7289,353.0,America/Detroit,2006-01-01,2022-09-22,2006-01-01,2022-04-24,2006-01-01,2021-01-01,176.6981195847053
325,KGAF0,963,KGAF0,Grafton,US,ND,,KGAF,48.4047,-97.3709,251.0,America/Chicago,2010-11-18,2022-09-22,2010-11-19,2022-04-24,2014-01-01,2022-01-01,787.526654164136
339,KGWR0,960,KGWR0,Gwinner,US,ND,,KGWR,46.2187,-97.6435,386.0,America/Chicago,2014-07-01,2022-09-22,2014-07-01,2022-04-24,2015-01-01,2022-01-01,741.9043545019839
71,71767,957,71767,Tobermory RCS,CA,ON,71767.0,CTTS,45.23,-81.63,214.0,America/Toronto,2007-02-28,2022-09-20,2007-01-25,2022-09-18,2007-01-01,2022-01-01,233.03691076018012
333,KGNA0,952,KGNA0,Grand Marais,US,MN,,KGNA,47.7472,-90.3444,186.0,America/Chicago,2006-01-01,2022-09-22,2006-01-01,2022-04-24,2006-01-01,2021-01-01,499.7096577705648
81,72013,945,72013,Saratoga,US,IL,72013.0,KC09,41.43,-88.42,178.0,America/Chicago,2006-02-02,2022-09-22,2011-03-17,2022-04-25,2014-01-01,2022-01-01,247.3891730598649
343,KHCD0,934,KHCD0,Hutchinson / Heatwole,US,MN,,KHCD,44.8599,-94.3825,324.0,America/Chicago,2006-01-01,2022-09-22,2006-01-01,2022-04-24,2006-01-01,2022-01-01,563.8413121337281
346,KHHG0,928,KHHG0,Huntington / Simpson,US,IN,,KHHG,40.8529,-85.4571,246.0,America/Indiana/Indianapolis,2020-01-14,2022-09-22,2020-01-14,2022-04-24,2020-01-01,2021-01-01,129.6704507985875
74,71834,928,71834,Geraldton Airport,CA,ON,71834.0,CYGQ,49.78,-86.94,348.0,America/Toronto,1982-01-01,2022-08-26,1981-08-01,2022-09-13,1981-01-01,2022-01-01,543.9728705494583
68,71749,928,71749,"Thunder Bay, Ontario",CA,ON,71749.0,CYQT,48.3667,-89.3167,199.0,America/Thunder_Bay,1955-07-02,2022-09-22,1957-01-02,2022-04-25,1957-01-01,2022-01-01,503.4111789810183
342,KHAI0,877,KHAI0,Three Rivers / Meadow Lane Village Mobile Home Park,US,MI,,KHAI,41.9597,-85.5934,251.0,America/Detroit,2006-10-24,2022-09-22,2006-10-25,2022-04-24,2006-01-01,2022-01-01,96.71114378737998
69,71750,868,71750,Pukaskwa,CA,ON,71750.0,CWCJ,48.61,-86.29,192.0,America/Nipigon,2005-01-01,2022-09-22,1996-08-13,2022-09-18,1996-01-01,2022-01-01,458.03975053690016
72,71831,865,71831,Kapuskasing Airport,CA,ON,71831.0,CYYU,49.41,-82.47,226.0,America/Toronto,1950-01-01,2022-09-22,1937-04-01,2022-09-19,1937-01-01,2022-01-01,500.1498926824238
77,71850,864,71850,Kenora Airport,CA,ON,71850.0,CYQK,49.79,-94.36,410.0,America/Winnipeg,1955-07-04,2022-09-22,1938-08-26,2022-09-19,1938-01-01,2022-01-01,729.4595695973454
73,71832,853,71832,Nagagami,CA,ON,71832.0,CWNZ,49.75,-84.16,264.0,America/Nipigon,1982-01-01,2022-09-22,1982-01-01,2022-09-20,1982-01-01,2022-01-01,520.2404461080697
